$GPRMC,174806.000,A,5920.435,N,01800.564,E,0.00,0.00,120312,,*0E
$GPGGA,174806.000,5920.435,N,01800.564,E,1,00,0.0,0.000,M,0.0,M,,*62
$GPGSA,A,3,,,,,,,,,,,,,0.0,0.0,0.0*32
$GPRMC,174807.000,A,5920.435,N,01800.565,E,0.00,0.00,120312,,*0E
$GPGGA,174807.000,5920.435,N,01800.565,E,1,00,0.0,0.000,M,0.0,M,,*62
$GPGSA,A,3,,,,,,,,,,,,,0.0,0.0,0.0*32
$GPRMC,174808.000,A,5920.435,N,01800.566,E,0.00,0.00,120312,,*02
$GPGGA,174808.000,5920.435,N,01800.566,E,1,00,0.0,0.000,M,0.0,M,,*6E
$GPGSA,A,3,,,,,,,,,,,,,0.0,0.0,0.0*32
$GPRMC,174809.000,A,5920.434,N,01800.568,E,0.00,0.00,120312,,*0C
$GPGGA,174809.000,5920.434,N,01800.568,E,1,00,0.0,1.709,M,0.0,M,,*6F
$GPGSA,A,3,,,,,,,,,,,,,0.0,0.0,0.0*32
$GPRMC,174810.000,A,5920.434,N,01800.569,E,0.00,0.00,120312,,*05
$GPGGA,174810.000,5920.434,N,01800.569,E,1,00,0.0,2.138,M,0.0,M,,*61
$GPGSA,A,3,,,,,,,,,,,,,0.0,0.0,0.0*32
$GPRMC,174811.000,A,5920.434,N,01800.570,E,0.00,0.00,120312,,*0C
$GPGGA,174811.000,5920.434,N,01800.570,E,1,00,0.0,2.181,M,0.0,M,,*6A
$GPGSA,A,3,,,,,,,,,,,,,0.0,0.0,0.0*32
$GPRMC,174812.000,A,5920.434,N,01800.572,E,0.00,0.00,120312,,*0D
$GPGGA,174812.000,5920.434,N,01800.572,E,1,00,0.0,2.003,M,0.0,M,,*60
$GPGSA,A,3,,,,,,,,,,,,,0.0,0.0,0.0*32
$GPRMC,174813.000,A,5920.435,N,01800.574,E,0.00,0.00,120312,,*0B
$GPGGA,174813.000,5920.435,N,01800.574,E,1,00,0.0,0.841,M,0.0,M,,*6A
$GPGSA,A,3,,,,,,,,,,,,,0.0,0.0,0.0*32
$GPRMC,174814.000,A,5920.435,N,01800.576,E,0.00,0.00,120312,,*0E
$GPGGA,174814.000,5920.435,N,01800.576,E,1,00,0.0,1.547,M,0.0,M,,*65
$GPGSA,A,3,,,,,,,,,,,,,0.0,0.0,0.0*32
$GPRMC,174815.000,A,5920.435,N,01800.577,E,0.00,0.00,120312,,*0E
$GPGGA,174815.000,5920.435,N,01800.577,E,1,00,0.0,1.771,M,0.0,M,,*62
$GPGSA,A,3,,,,,,,,,,,,,0.0,0.0,0.0*32
$GPRMC,174816.000,A,5920.435,N,01800.579,E,0.00,0.00,120312,,*03
$GPGGA,174816.000,5920.435,N,01800.579,E,1,00,0.0,0.541,M,0.0,M,,*6F
$GPGSA,A,3,,,,,,,,,,,,,0.0,0.0,0.0*32
$GPRMC,174817.000,A,5920.435,N,01800.581,E,0.00,0.00,120312,,*05
$GPGGA,174817.000,5920.435,N,01800.581,E,1,00,0.0,3.177,M,0.0,M,,*6B
$GPGSA,A,3,,,,,,,,,,,,,0.0,0.0,0.0*32
$GPRMC,174818.000,A,5920.436,N,01800.583,E,0.00,0.00,120312,,*0B
$GPGGA,174818.000,5920.436,N,01800.583,E,1,00,0.0,9.088,M,0.0,M,,*6E
$GPGSA,A,3,,,,,,,,,,,,,0.0,0.0,0.0*32
$GPRMC,174819.000,A,5920.436,N,01800.585,E,0.00,0.00,120312,,*0C
$GPGGA,174819.000,5920.436,N,01800.585,E,1,00,0.0,8.286,M,0.0,M,,*64
$GPGSA,A,3,,,,,,,,,,,,,0.0,0.0,0.0*32
$GPRMC,174820.000,A,5920.436,N,01800.586,E,0.00,0.00,120312,,*05
$GPGGA,174820.000,5920.436,N,01800.586,E,1,00,0.0,3.944,M,0.0,M,,*63
$GPGSA,A,3,,,,,,,,,,,,,0.0,0.0,0.0*32
$GPRMC,174821.000,A,5920.436,N,01800.588,E,0.00,0.00,120312,,*0A
$GPGGA,174821.000,5920.436,N,01800.588,E,1,00,0.0,4.676,M,0.0,M,,*65
$GPGSA,A,3,,,,,,,,,,,,,0.0,0.0,0.0*32
$GPRMC,174822.000,A,5920.436,N,01800.590,E,0.00,0.00,120312,,*00
$GPGGA,174822.000,5920.436,N,01800.590,E,1,00,0.0,6.448,M,0.0,M,,*62
$GPGSA,A,3,,,,,,,,,,,,,0.0,0.0,0.0*32
$GPRMC,174823.000,A,5920.437,N,01800.591,E,0.00,0.00,120312,,*01
$GPGGA,174823.000,5920.437,N,01800.591,E,1,00,0.0,7.545,M,0.0,M,,*6E
$GPGSA,A,3,,,,,,,,,,,,,0.0,0.0,0.0*32
$GPRMC,174824.000,A,5920.437,N,01800.593,E,0.00,0.00,120312,,*04
$GPGGA,174824.000,5920.437,N,01800.593,E,1,00,0.0,10.996,M,0.0,M,,*5F
$GPGSA,A,3,,,,,,,,,,,,,0.0,0.0,0.0*32
$GPRMC,174825.000,A,5920.437,N,01800.594,E,0.00,0.00,120312,,*02
$GPGGA,174825.000,5920.437,N,01800.594,E,1,00,0.0,8.973,M,0.0,M,,*6B
$GPGSA,A,3,,,,,,,,,,,,,0.0,0.0,0.0*32
$GPRMC,174826.000,A,5920.437,N,01800.595,E,0.00,0.00,120312,,*00
$GPGGA,174826.000,5920.437,N,01800.595,E,1,00,0.0,8.436,M,0.0,M,,*65
$GPGSA,A,3,,,,,,,,,,,,,0.0,0.0,0.0*32
$GPRMC,174827.000,A,5920.437,N,01800.596,E,0.00,0.00,120312,,*02
$GPGGA,174827.000,5920.437,N,01800.596,E,1,00,0.0,11.089,M,0.0,M,,*5F
$GPGSA,A,3,,,,,,,,,,,,,0.0,0.0,0.0*32
$GPRMC,174828.000,A,5920.437,N,01800.598,E,0.00,0.00,120312,,*03
$GPGGA,174828.000,5920.437,N,01800.598,E,1,00,0.0,11.000,M,0.0,M,,*5F
$GPGSA,A,3,,,,,,,,,,,,,0.0,0.0,0.0*32
$GPRMC,174829.000,A,5920.437,N,01800.599,E,0.00,0.00,120312,,*03
$GPGGA,174829.000,5920.437,N,01800.599,E,1,00,0.0,11.003,M,0.0,M,,*5C
$GPGSA,A,3,,,,,,,,,,,,,0.0,0.0,0.0*32
$GPRMC,174830.000,A,5920.437,N,01800.600,E,0.00,0.00,120312,,*08
$GPGGA,174830.000,5920.437,N,01800.600,E,1,00,0.0,9.459,M,0.0,M,,*65
$GPGSA,A,3,,,,,,,,,,,,,0.0,0.0,0.0*32
$GPRMC,174831.000,A,5920.437,N,01800.601,E,0.00,0.00,120312,,*08
$GPGGA,174831.000,5920.437,N,01800.601,E,1,00,0.0,9.938,M,0.0,M,,*6F
$GPGSA,A,3,,,,,,,,,,,,,0.0,0.0,0.0*32
$GPRMC,174832.000,A,5920.436,N,01800.603,E,0.00,0.00,120312,,*08
$GPGGA,174832.000,5920.436,N,01800.603,E,1,00,0.0,7.720,M,0.0,M,,*66
$GPGSA,A,3,,,,,,,,,,,,,0.0,0.0,0.0*32
$GPRMC,174833.000,A,5920.436,N,01800.604,E,0.00,0.00,120312,,*0E
$GPGGA,174833.000,5920.436,N,01800.604,E,1,00,0.0,6.260,M,0.0,M,,*60
$GPGSA,A,3,,,,,,,,,,,,,0.0,0.0,0.0*32
$GPRMC,174834.000,A,5920.436,N,01800.605,E,0.00,0.00,120312,,*08
$GPGGA,174834.000,5920.436,N,01800.605,E,1,00,0.0,7.699,M,0.0,M,,*65
$GPGSA,A,3,,,,,,,,,,,,,0.0,0.0,0.0*32
$GPRMC,174835.000,A,5920.435,N,01800.607,E,0.00,0.00,120312,,*08
$GPGGA,174835.000,5920.435,N,01800.607,E,1,00,0.0,5.374,M,0.0,M,,*61
$GPGSA,A,3,,,,,,,,,,,,,0.0,0.0,0.0*32
$GPRMC,174836.000,A,5920.435,N,01800.608,E,0.00,0.00,120312,,*04
$GPGGA,174836.000,5920.435,N,01800.608,E,1,00,0.0,8.197,M,0.0,M,,*6F
$GPGSA,A,3,,,,,,,,,,,,,0.0,0.0,0.0*32
$GPRMC,174837.000,A,5920.435,N,01800.609,E,0.00,0.00,120312,,*04
$GPGGA,174837.000,5920.435,N,01800.609,E,1,00,0.0,5.096,M,0.0,M,,*62
$GPGSA,A,3,,,,,,,,,,,,,0.0,0.0,0.0*32
$GPRMC,174838.000,A,5920.434,N,01800.610,E,0.00,0.00,120312,,*02
$GPGGA,174838.000,5920.434,N,01800.610,E,1,00,0.0,5.051,M,0.0,M,,*6F
$GPGSA,A,3,,,,,,,,,,,,,0.0,0.0,0.0*32
$GPRMC,174839.000,A,5920.434,N,01800.612,E,0.00,0.00,120312,,*01
$GPGGA,174839.000,5920.434,N,01800.612,E,1,00,0.0,3.964,M,0.0,M,,*65
$GPGSA,A,3,,,,,,,,,,,,,0.0,0.0,0.0*32
$GPRMC,174840.000,A,5920.433,N,01800.613,E,0.00,0.00,120312,,*09
$GPGGA,174840.000,5920.433,N,01800.613,E,1,00,0.0,6.441,M,0.0,M,,*62
$GPGSA,A,3,,,,,,,,,,,,,0.0,0.0,0.0*32
$GPRMC,174841.000,A,5920.433,N,01800.615,E,0.00,0.00,120312,,*0E
$GPGGA,174841.000,5920.433,N,01800.615,E,1,00,0.0,10.048,M,0.0,M,,*5F
$GPGSA,A,3,,,,,,,,,,,,,0.0,0.0,0.0*32
$GPRMC,174842.000,A,5920.433,N,01800.616,E,0.00,0.00,120312,,*0E
$GPGGA,174842.000,5920.433,N,01800.616,E,1,00,0.0,11.964,M,0.0,M,,*59
$GPGSA,A,3,,,,,,,,,,,,,0.0,0.0,0.0*32
$GPRMC,174843.000,A,5920.432,N,01800.618,E,0.00,0.00,120312,,*00
$GPGGA,174843.000,5920.432,N,01800.618,E,1,00,0.0,13.935,M,0.0,M,,*51
$GPGSA,A,3,,,,,,,,,,,,,0.0,0.0,0.0*32
$GPRMC,174844.000,A,5920.432,N,01800.620,E,0.00,0.00,120312,,*0C
$GPGGA,174844.000,5920.432,N,01800.620,E,1,00,0.0,10.176,M,0.0,M,,*51
$GPGSA,A,3,,,,,,,,,,,,,0.0,0.0,0.0*32
$GPRMC,174845.000,A,5920.432,N,01800.622,E,0.00,0.00,120312,,*0F
$GPGGA,174845.000,5920.432,N,01800.622,E,1,00,0.0,6.732,M,0.0,M,,*63
$GPGSA,A,3,,,,,,,,,,,,,0.0,0.0,0.0*32
$GPRMC,174846.000,A,5920.432,N,01800.624,E,0.00,0.00,120312,,*0A
$GPGGA,174846.000,5920.432,N,01800.624,E,1,00,0.0,0.000,M,0.0,M,,*66
$GPGSA,A,3,,,,,,,,,,,,,0.0,0.0,0.0*32
$GPRMC,174847.000,A,5920.432,N,01800.626,E,0.00,0.00,120312,,*09
$GPGGA,174847.000,5920.432,N,01800.626,E,1,00,0.0,1.747,M,0.0,M,,*60
$GPGSA,A,3,,,,,,,,,,,,,0.0,0.0,0.0*32
$GPRMC,174848.000,A,5920.432,N,01800.628,E,0.00,0.00,120312,,*08
$GPGGA,174848.000,5920.432,N,01800.628,E,1,00,0.0,4.975,M,0.0,M,,*6B
$GPGSA,A,3,,,,,,,,,,,,,0.0,0.0,0.0*32
$GPRMC,174849.000,A,5920.432,N,01800.630,E,0.00,0.00,120312,,*00
$GPGGA,174849.000,5920.432,N,01800.630,E,1,00,0.0,8.575,M,0.0,M,,*63
$GPGSA,A,3,,,,,,,,,,,,,0.0,0.0,0.0*32
$GPRMC,174850.000,A,5920.432,N,01800.632,E,0.00,0.00,120312,,*0A
$GPGGA,174850.000,5920.432,N,01800.632,E,1,00,0.0,12.108,M,0.0,M,,*5C
$GPGSA,A,3,,,,,,,,,,,,,0.0,0.0,0.0*32
$GPRMC,174851.000,A,5920.432,N,01800.634,E,0.00,0.00,120312,,*0D
$GPGGA,174851.000,5920.432,N,01800.634,E,1,00,0.0,12.815,M,0.0,M,,*5E
$GPGSA,A,3,,,,,,,,,,,,,0.0,0.0,0.0*32
$GPRMC,174852.000,A,5920.432,N,01800.635,E,0.00,0.00,120312,,*0F
$GPGGA,174852.000,5920.432,N,01800.635,E,1,00,0.0,12.894,M,0.0,M,,*55
$GPGSA,A,3,,,,,,,,,,,,,0.0,0.0,0.0*32
$GPRMC,174853.000,A,5920.432,N,01800.637,E,0.00,0.00,120312,,*0C
$GPGGA,174853.000,5920.432,N,01800.637,E,1,00,0.0,14.208,M,0.0,M,,*5F
$GPGSA,A,3,,,,,,,,,,,,,0.0,0.0,0.0*32
$GPRMC,174854.000,A,5920.432,N,01800.638,E,0.00,0.00,120312,,*04
$GPGGA,174854.000,5920.432,N,01800.638,E,1,00,0.0,15.724,M,0.0,M,,*5D
$GPGSA,A,3,,,,,,,,,,,,,0.0,0.0,0.0*32
$GPRMC,174855.000,A,5920.432,N,01800.640,E,0.00,0.00,120312,,*0A
$GPGGA,174855.000,5920.432,N,01800.640,E,1,00,0.0,16.122,M,0.0,M,,*50
$GPGSA,A,3,,,,,,,,,,,,,0.0,0.0,0.0*32
$GPRMC,174856.000,A,5920.432,N,01800.641,E,0.00,0.00,120312,,*08
$GPGGA,174856.000,5920.432,N,01800.641,E,1,00,0.0,13.878,M,0.0,M,,*51
$GPGSA,A,3,,,,,,,,,,,,,0.0,0.0,0.0*32
$GPRMC,174857.000,A,5920.432,N,01800.643,E,0.00,0.00,120312,,*0B
$GPGGA,174857.000,5920.432,N,01800.643,E,1,00,0.0,11.172,M,0.0,M,,*53
$GPGSA,A,3,,,,,,,,,,,,,0.0,0.0,0.0*32
$GPRMC,174858.000,A,5920.432,N,01800.644,E,0.00,0.00,120312,,*03
$GPGGA,174858.000,5920.432,N,01800.644,E,1,00,0.0,9.435,M,0.0,M,,*64
$GPGSA,A,3,,,,,,,,,,,,,0.0,0.0,0.0*32
$GPRMC,174859.000,A,5920.433,N,01800.645,E,0.00,0.00,120312,,*02
$GPGGA,174859.000,5920.433,N,01800.645,E,1,00,0.0,5.665,M,0.0,M,,*6E
$GPGSA,A,3,,,,,,,,,,,,,0.0,0.0,0.0*32
$GPRMC,174900.000,A,5920.433,N,01800.646,E,0.00,0.00,120312,,*0C
$GPGGA,174900.000,5920.433,N,01800.646,E,1,00,0.0,5.048,M,0.0,M,,*69
$GPGSA,A,3,,,,,,,,,,,,,0.0,0.0,0.0*32
$GPRMC,174901.000,A,5920.433,N,01800.648,E,0.00,0.00,120312,,*03
$GPGGA,174901.000,5920.433,N,01800.648,E,1,00,0.0,3.945,M,0.0,M,,*64
$GPGSA,A,3,,,,,,,,,,,,,0.0,0.0,0.0*32
$GPRMC,174902.000,A,5920.433,N,01800.649,E,0.00,0.00,120312,,*01
$GPGGA,174902.000,5920.433,N,01800.649,E,1,00,0.0,6.929,M,0.0,M,,*69
$GPGSA,A,3,,,,,,,,,,,,,0.0,0.0,0.0*32
$GPRMC,174903.000,A,5920.433,N,01800.650,E,0.00,0.00,120312,,*08
$GPGGA,174903.000,5920.433,N,01800.650,E,1,00,0.0,7.641,M,0.0,M,,*60
$GPGSA,A,3,,,,,,,,,,,,,0.0,0.0,0.0*32
$GPRMC,174904.000,A,5920.433,N,01800.651,E,0.00,0.00,120312,,*0E
$GPGGA,174904.000,5920.433,N,01800.651,E,1,00,0.0,9.016,M,0.0,M,,*6C
$GPGSA,A,3,,,,,,,,,,,,,0.0,0.0,0.0*32
$GPRMC,174905.000,A,5920.433,N,01800.653,E,0.00,0.00,120312,,*0D
$GPGGA,174905.000,5920.433,N,01800.653,E,1,00,0.0,8.823,M,0.0,M,,*60
$GPGSA,A,3,,,,,,,,,,,,,0.0,0.0,0.0*32
$GPRMC,174906.000,A,5920.433,N,01800.654,E,0.00,0.00,120312,,*09
$GPGGA,174906.000,5920.433,N,01800.654,E,1,00,0.0,6.351,M,0.0,M,,*64
$GPGSA,A,3,,,,,,,,,,,,,0.0,0.0,0.0*32
$GPRMC,174907.000,A,5920.433,N,01800.655,E,0.00,0.00,120312,,*09
$GPGGA,174907.000,5920.433,N,01800.655,E,1,00,0.0,6.440,M,0.0,M,,*63
$GPGSA,A,3,,,,,,,,,,,,,0.0,0.0,0.0*32
$GPRMC,174908.000,A,5920.433,N,01800.657,E,0.00,0.00,120312,,*04
$GPGGA,174908.000,5920.433,N,01800.657,E,1,00,0.0,2.259,M,0.0,M,,*64
$GPGSA,A,3,,,,,,,,,,,,,0.0,0.0,0.0*32
$GPRMC,174909.000,A,5920.433,N,01800.658,E,0.00,0.00,120312,,*0A
$GPGGA,174909.000,5920.433,N,01800.658,E,1,00,0.0,3.638,M,0.0,M,,*68
$GPGSA,A,3,,,,,,,,,,,,,0.0,0.0,0.0*32
$GPRMC,174910.000,A,5920.433,N,01800.659,E,0.00,0.00,120312,,*03
$GPGGA,174910.000,5920.433,N,01800.659,E,1,00,0.0,2.680,M,0.0,M,,*63
$GPGSA,A,3,,,,,,,,,,,,,0.0,0.0,0.0*32
$GPRMC,174911.000,A,5920.433,N,01800.661,E,0.00,0.00,120312,,*09
$GPGGA,174911.000,5920.433,N,01800.661,E,1,00,0.0,2.332,M,0.0,M,,*65
$GPGSA,A,3,,,,,,,,,,,,,0.0,0.0,0.0*32
$GPRMC,174912.000,A,5920.433,N,01800.662,E,0.00,0.00,120312,,*09
$GPGGA,174912.000,5920.433,N,01800.662,E,1,00,0.0,0.866,M,0.0,M,,*6D
$GPGSA,A,3,,,,,,,,,,,,,0.0,0.0,0.0*32
$GPRMC,174913.000,A,5920.432,N,01800.663,E,0.00,0.00,120312,,*08
$GPGGA,174913.000,5920.432,N,01800.663,E,1,00,0.0,0.000,M,0.0,M,,*64
$GPGSA,A,3,,,,,,,,,,,,,0.0,0.0,0.0*32
$GPRMC,174914.000,A,5920.432,N,01800.665,E,0.00,0.00,120312,,*09
$GPGGA,174914.000,5920.432,N,01800.665,E,1,00,0.0,1.413,M,0.0,M,,*62
$GPGSA,A,3,,,,,,,,,,,,,0.0,0.0,0.0*32
$GPRMC,174915.000,A,5920.432,N,01800.666,E,0.00,0.00,120312,,*0B
$GPGGA,174915.000,5920.432,N,01800.666,E,1,00,0.0,3.845,M,0.0,M,,*6D
$GPGSA,A,3,,,,,,,,,,,,,0.0,0.0,0.0*32
$GPRMC,174916.000,A,5920.432,N,01800.668,E,0.00,0.00,120312,,*06
$GPGGA,174916.000,5920.432,N,01800.668,E,1,00,0.0,4.498,M,0.0,M,,*6B
$GPGSA,A,3,,,,,,,,,,,,,0.0,0.0,0.0*32
$GPRMC,174917.000,A,5920.432,N,01800.669,E,0.00,0.00,120312,,*06
$GPGGA,174917.000,5920.432,N,01800.669,E,1,00,0.0,3.640,M,0.0,M,,*6B
$GPGSA,A,3,,,,,,,,,,,,,0.0,0.0,0.0*32
$GPRMC,174918.000,A,5920.432,N,01800.671,E,0.00,0.00,120312,,*00
$GPGGA,174918.000,5920.432,N,01800.671,E,1,00,0.0,0.000,M,0.0,M,,*6C
$GPGSA,A,3,,,,,,,,,,,,,0.0,0.0,0.0*32
$GPRMC,174919.000,A,5920.431,N,01800.673,E,0.00,0.00,120312,,*00
$GPGGA,174919.000,5920.431,N,01800.673,E,1,00,0.0,0.000,M,0.0,M,,*6C
$GPGSA,A,3,,,,,,,,,,,,,0.0,0.0,0.0*32
$GPRMC,174920.000,A,5920.431,N,01800.674,E,0.00,0.00,120312,,*0D
$GPGGA,174920.000,5920.431,N,01800.674,E,1,00,0.0,0.000,M,0.0,M,,*61
$GPGSA,A,3,,,,,,,,,,,,,0.0,0.0,0.0*32
$GPRMC,174921.000,A,5920.431,N,01800.675,E,0.00,0.00,120312,,*0D
$GPGGA,174921.000,5920.431,N,01800.675,E,1,00,0.0,0.000,M,0.0,M,,*61
$GPGSA,A,3,,,,,,,,,,,,,0.0,0.0,0.0*32
$GPRMC,174922.000,A,5920.430,N,01800.676,E,0.00,0.00,120312,,*0C
$GPGGA,174922.000,5920.430,N,01800.676,E,1,00,0.0,0.000,M,0.0,M,,*60
$GPGSA,A,3,,,,,,,,,,,,,0.0,0.0,0.0*32
$GPRMC,174923.000,A,5920.430,N,01800.678,E,0.00,0.00,120312,,*03
$GPGGA,174923.000,5920.430,N,01800.678,E,1,00,0.0,0.000,M,0.0,M,,*6F
$GPGSA,A,3,,,,,,,,,,,,,0.0,0.0,0.0*32
$GPRMC,174924.000,A,5920.430,N,01800.679,E,0.00,0.00,120312,,*05
$GPGGA,174924.000,5920.430,N,01800.679,E,1,00,0.0,1.287,M,0.0,M,,*65
$GPGSA,A,3,,,,,,,,,,,,,0.0,0.0,0.0*32
$GPRMC,174925.000,A,5920.430,N,01800.681,E,0.00,0.00,120312,,*03
$GPGGA,174925.000,5920.430,N,01800.681,E,1,00,0.0,3.875,M,0.0,M,,*66
$GPGSA,A,3,,,,,,,,,,,,,0.0,0.0,0.0*32
$GPRMC,174926.000,A,5920.429,N,01800.682,E,0.00,0.00,120312,,*0B
$GPGGA,174926.000,5920.429,N,01800.682,E,1,00,0.0,2.810,M,0.0,M,,*6C
$GPGSA,A,3,,,,,,,,,,,,,0.0,0.0,0.0*32
$GPRMC,174927.000,A,5920.429,N,01800.684,E,0.00,0.00,120312,,*0C
$GPGGA,174927.000,5920.429,N,01800.684,E,1,00,0.0,2.238,M,0.0,M,,*6B
$GPGSA,A,3,,,,,,,,,,,,,0.0,0.0,0.0*32
$GPRMC,174928.000,A,5920.429,N,01800.686,E,0.00,0.00,120312,,*01
$GPGGA,174928.000,5920.429,N,01800.686,E,1,00,0.0,3.291,M,0.0,M,,*64
$GPGSA,A,3,,,,,,,,,,,,,0.0,0.0,0.0*32
$GPRMC,174929.000,A,5920.430,N,01800.688,E,0.00,0.00,120312,,*06
$GPGGA,174929.000,5920.430,N,01800.688,E,1,00,0.0,3.969,M,0.0,M,,*6F
$GPGSA,A,3,,,,,,,,,,,,,0.0,0.0,0.0*32
$GPRMC,174930.000,A,5920.429,N,01800.689,E,0.00,0.00,120312,,*07
$GPGGA,174930.000,5920.429,N,01800.689,E,1,00,0.0,6.492,M,0.0,M,,*62
$GPGSA,A,3,,,,,,,,,,,,,0.0,0.0,0.0*32
$GPRMC,174931.000,A,5920.430,N,01800.691,E,0.00,0.00,120312,,*07
$GPGGA,174931.000,5920.430,N,01800.691,E,1,00,0.0,10.407,M,0.0,M,,*59
$GPGSA,A,3,,,,,,,,,,,,,0.0,0.0,0.0*32
$GPRMC,174932.000,A,5920.429,N,01800.693,E,0.00,0.00,120312,,*0E
$GPGGA,174932.000,5920.429,N,01800.693,E,1,00,0.0,8.218,M,0.0,M,,*61
$GPGSA,A,3,,,,,,,,,,,,,0.0,0.0,0.0*32
$GPRMC,174933.000,A,5920.430,N,01800.695,E,0.00,0.00,120312,,*01
$GPGGA,174933.000,5920.430,N,01800.695,E,1,00,0.0,9.721,M,0.0,M,,*60
$GPGSA,A,3,,,,,,,,,,,,,0.0,0.0,0.0*32
$GPRMC,174934.000,A,5920.429,N,01800.697,E,0.00,0.00,120312,,*0C
$GPGGA,174934.000,5920.429,N,01800.697,E,1,00,0.0,11.593,M,0.0,M,,*5F
$GPGSA,A,3,,,,,,,,,,,,,0.0,0.0,0.0*32
$GPRMC,174935.000,A,5920.429,N,01800.699,E,0.00,0.00,120312,,*03
$GPGGA,174935.000,5920.429,N,01800.699,E,1,00,0.0,14.211,M,0.0,M,,*58
$GPGSA,A,3,,,,,,,,,,,,,0.0,0.0,0.0*32
$GPRMC,174936.000,A,5920.429,N,01800.701,E,0.00,0.00,120312,,*00
$GPGGA,174936.000,5920.429,N,01800.701,E,1,00,0.0,10.961,M,0.0,M,,*53
$GPGSA,A,3,,,,,,,,,,,,,0.0,0.0,0.0*32
$GPRMC,174937.000,A,5920.429,N,01800.703,E,0.00,0.00,120312,,*03
$GPGGA,174937.000,5920.429,N,01800.703,E,1,00,0.0,12.019,M,0.0,M,,*54
$GPGSA,A,3,,,,,,,,,,,,,0.0,0.0,0.0*32
$GPRMC,174938.000,A,5920.429,N,01800.704,E,0.00,0.00,120312,,*0B
$GPGGA,174938.000,5920.429,N,01800.704,E,1,00,0.0,10.200,M,0.0,M,,*54
$GPGSA,A,3,,,,,,,,,,,,,0.0,0.0,0.0*32
$GPRMC,174939.000,A,5920.429,N,01800.706,E,0.00,0.00,120312,,*08
$GPGGA,174939.000,5920.429,N,01800.706,E,1,00,0.0,5.705,M,0.0,M,,*63
$GPGSA,A,3,,,,,,,,,,,,,0.0,0.0,0.0*32
$GPRMC,174940.000,A,5920.429,N,01800.708,E,0.00,0.00,120312,,*08
$GPGGA,174940.000,5920.429,N,01800.708,E,1,00,0.0,5.057,M,0.0,M,,*63
$GPGSA,A,3,,,,,,,,,,,,,0.0,0.0,0.0*32
$GPRMC,174941.000,A,5920.429,N,01800.709,E,0.00,0.00,120312,,*08
$GPGGA,174941.000,5920.429,N,01800.709,E,1,00,0.0,8.103,M,0.0,M,,*6E
$GPGSA,A,3,,,,,,,,,,,,,0.0,0.0,0.0*32
$GPRMC,174942.000,A,5920.429,N,01800.710,E,0.00,0.00,120312,,*03
$GPGGA,174942.000,5920.429,N,01800.710,E,1,00,0.0,9.815,M,0.0,M,,*6A
$GPGSA,A,3,,,,,,,,,,,,,0.0,0.0,0.0*32
$GPRMC,174943.000,A,5920.428,N,01800.712,E,0.00,0.00,120312,,*01
$GPGGA,174943.000,5920.428,N,01800.712,E,1,00,0.0,13.114,M,0.0,M,,*5B
$GPGSA,A,3,,,,,,,,,,,,,0.0,0.0,0.0*32
$GPRMC,174944.000,A,5920.428,N,01800.713,E,0.00,0.00,120312,,*07
$GPGGA,174944.000,5920.428,N,01800.713,E,1,00,0.0,11.818,M,0.0,M,,*5A
$GPGSA,A,3,,,,,,,,,,,,,0.0,0.0,0.0*32
$GPRMC,174945.000,A,5920.428,N,01800.714,E,0.00,0.00,120312,,*01
$GPGGA,174945.000,5920.428,N,01800.714,E,1,00,0.0,9.437,M,0.0,M,,*64
$GPGSA,A,3,,,,,,,,,,,,,0.0,0.0,0.0*32
$GPRMC,174946.000,A,5920.428,N,01800.716,E,0.00,0.00,120312,,*00
$GPGGA,174946.000,5920.428,N,01800.716,E,1,00,0.0,8.799,M,0.0,M,,*63
$GPGSA,A,3,,,,,,,,,,,,,0.0,0.0,0.0*32
$GPRMC,174947.000,A,5920.428,N,01800.717,E,0.00,0.00,120312,,*00
$GPGGA,174947.000,5920.428,N,01800.717,E,1,00,0.0,7.972,M,0.0,M,,*67
$GPGSA,A,3,,,,,,,,,,,,,0.0,0.0,0.0*32
$GPRMC,174948.000,A,5920.428,N,01800.718,E,0.00,0.00,120312,,*00
$GPGGA,174948.000,5920.428,N,01800.718,E,1,00,0.0,8.296,M,0.0,M,,*69
$GPGSA,A,3,,,,,,,,,,,,,0.0,0.0,0.0*32
$GPRMC,174949.000,A,5920.428,N,01800.719,E,0.00,0.00,120312,,*00
$GPGGA,174949.000,5920.428,N,01800.719,E,1,00,0.0,7.166,M,0.0,M,,*6A
$GPGSA,A,3,,,,,,,,,,,,,0.0,0.0,0.0*32
$GPRMC,174950.000,A,5920.427,N,01800.720,E,0.00,0.00,120312,,*0D
$GPGGA,174950.000,5920.427,N,01800.720,E,1,00,0.0,9.158,M,0.0,M,,*64
$GPGSA,A,3,,,,,,,,,,,,,0.0,0.0,0.0*32
$GPRMC,174951.000,A,5920.427,N,01800.722,E,0.00,0.00,120312,,*0E
$GPGGA,174951.000,5920.427,N,01800.722,E,1,00,0.0,8.145,M,0.0,M,,*6A
$GPGSA,A,3,,,,,,,,,,,,,0.0,0.0,0.0*32
$GPRMC,174952.000,A,5920.427,N,01800.723,E,0.00,0.00,120312,,*0C
$GPGGA,174952.000,5920.427,N,01800.723,E,1,00,0.0,5.172,M,0.0,M,,*61
$GPGSA,A,3,,,,,,,,,,,,,0.0,0.0,0.0*32
$GPRMC,174953.000,A,5920.426,N,01800.724,E,0.00,0.00,120312,,*0B
$GPGGA,174953.000,5920.426,N,01800.724,E,1,00,0.0,6.644,M,0.0,M,,*67
$GPGSA,A,3,,,,,,,,,,,,,0.0,0.0,0.0*32
$GPRMC,174954.000,A,5920.426,N,01800.725,E,0.00,0.00,120312,,*0D
$GPGGA,174954.000,5920.426,N,01800.725,E,1,00,0.0,6.528,M,0.0,M,,*68
$GPGSA,A,3,,,,,,,,,,,,,0.0,0.0,0.0*32
$GPRMC,174955.000,A,5920.426,N,01800.726,E,0.00,0.00,120312,,*0F
$GPGGA,174955.000,5920.426,N,01800.726,E,1,00,0.0,10.512,M,0.0,M,,*54
$GPGSA,A,3,,,,,,,,,,,,,0.0,0.0,0.0*32
$GPRMC,174956.000,A,5920.426,N,01800.728,E,0.00,0.00,120312,,*02
$GPGGA,174956.000,5920.426,N,01800.728,E,1,00,0.0,12.105,M,0.0,M,,*59
$GPGSA,A,3,,,,,,,,,,,,,0.0,0.0,0.0*32
$GPRMC,174957.000,A,5920.426,N,01800.729,E,0.00,0.00,120312,,*02
$GPGGA,174957.000,5920.426,N,01800.729,E,1,00,0.0,9.505,M,0.0,M,,*67
$GPGSA,A,3,,,,,,,,,,,,,0.0,0.0,0.0*32
$GPRMC,174958.000,A,5920.425,N,01800.731,E,0.00,0.00,120312,,*07
$GPGGA,174958.000,5920.425,N,01800.731,E,1,00,0.0,10.045,M,0.0,M,,*5B
$GPGSA,A,3,,,,,,,,,,,,,0.0,0.0,0.0*32
$GPRMC,174959.000,A,5920.425,N,01800.732,E,0.00,0.00,120312,,*05
$GPGGA,174959.000,5920.425,N,01800.732,E,1,00,0.0,14.021,M,0.0,M,,*5F
$GPGSA,A,3,,,,,,,,,,,,,0.0,0.0,0.0*32
$GPRMC,175000.000,A,5920.425,N,01800.734,E,0.00,0.00,120312,,*07
$GPGGA,175000.000,5920.425,N,01800.734,E,1,00,0.0,10.961,M,0.0,M,,*54
$GPGSA,A,3,,,,,,,,,,,,,0.0,0.0,0.0*32
$GPRMC,175001.000,A,5920.425,N,01800.735,E,0.00,0.00,120312,,*07
$GPGGA,175001.000,5920.425,N,01800.735,E,1,00,0.0,9.210,M,0.0,M,,*61
$GPGSA,A,3,,,,,,,,,,,,,0.0,0.0,0.0*32
$GPRMC,175002.000,A,5920.425,N,01800.737,E,0.00,0.00,120312,,*06
$GPGGA,175002.000,5920.425,N,01800.737,E,1,00,0.0,10.013,M,0.0,M,,*59
$GPGSA,A,3,,,,,,,,,,,,,0.0,0.0,0.0*32
$GPRMC,175003.000,A,5920.425,N,01800.738,E,0.00,0.00,120312,,*08
$GPGGA,175003.000,5920.425,N,01800.738,E,1,00,0.0,6.495,M,0.0,M,,*6A
$GPGSA,A,3,,,,,,,,,,,,,0.0,0.0,0.0*32
$GPRMC,175004.000,A,5920.424,N,01800.740,E,0.00,0.00,120312,,*01
$GPGGA,175004.000,5920.424,N,01800.740,E,1,00,0.0,9.211,M,0.0,M,,*66
$GPGSA,A,3,,,,,,,,,,,,,0.0,0.0,0.0*32
$GPRMC,175005.000,A,5920.424,N,01800.741,E,0.00,0.00,120312,,*01
$GPGGA,175005.000,5920.424,N,01800.741,E,1,00,0.0,9.147,M,0.0,M,,*66
$GPGSA,A,3,,,,,,,,,,,,,0.0,0.0,0.0*32
$GPRMC,175006.000,A,5920.424,N,01800.743,E,0.00,0.00,120312,,*00
$GPGGA,175006.000,5920.424,N,01800.743,E,1,00,0.0,7.934,M,0.0,M,,*65
$GPGSA,A,3,,,,,,,,,,,,,0.0,0.0,0.0*32
$GPRMC,175007.000,A,5920.424,N,01800.744,E,0.00,0.00,120312,,*06
$GPGGA,175007.000,5920.424,N,01800.744,E,1,00,0.0,8.581,M,0.0,M,,*6E
$GPGSA,A,3,,,,,,,,,,,,,0.0,0.0,0.0*32
$GPRMC,175008.000,A,5920.423,N,01800.746,E,0.00,0.00,120312,,*0C
$GPGGA,175008.000,5920.423,N,01800.746,E,1,00,0.0,11.320,M,0.0,M,,*51
$GPGSA,A,3,,,,,,,,,,,,,0.0,0.0,0.0*32
$GPRMC,175009.000,A,5920.423,N,01800.748,E,0.00,0.00,120312,,*03
$GPGGA,175009.000,5920.423,N,01800.748,E,1,00,0.0,7.488,M,0.0,M,,*6C
$GPGSA,A,3,,,,,,,,,,,,,0.0,0.0,0.0*32
$GPRMC,175010.000,A,5920.423,N,01800.749,E,0.00,0.00,120312,,*0A
$GPGGA,175010.000,5920.423,N,01800.749,E,1,00,0.0,9.733,M,0.0,M,,*68
$GPGSA,A,3,,,,,,,,,,,,,0.0,0.0,0.0*32
$GPRMC,175011.000,A,5920.423,N,01800.750,E,0.00,0.00,120312,,*03
$GPGGA,175011.000,5920.423,N,01800.750,E,1,00,0.0,8.234,M,0.0,M,,*62
$GPGSA,A,3,,,,,,,,,,,,,0.0,0.0,0.0*32
$GPRMC,175012.000,A,5920.423,N,01800.752,E,0.00,0.00,120312,,*02
$GPGGA,175012.000,5920.423,N,01800.752,E,1,00,0.0,9.140,M,0.0,M,,*62
$GPGSA,A,3,,,,,,,,,,,,,0.0,0.0,0.0*32
$GPRMC,175013.000,A,5920.422,N,01800.754,E,0.00,0.00,120312,,*04
$GPGGA,175013.000,5920.422,N,01800.754,E,1,00,0.0,10.894,M,0.0,M,,*5C
$GPGSA,A,3,,,,,,,,,,,,,0.0,0.0,0.0*32
$GPRMC,175014.000,A,5920.422,N,01800.755,E,0.00,0.00,120312,,*02
$GPGGA,175014.000,5920.422,N,01800.755,E,1,00,0.0,11.444,M,0.0,M,,*5A
$GPGSA,A,3,,,,,,,,,,,,,0.0,0.0,0.0*32
$GPRMC,175015.000,A,5920.422,N,01800.757,E,0.00,0.00,120312,,*01
$GPGGA,175015.000,5920.422,N,01800.757,E,1,00,0.0,10.485,M,0.0,M,,*55
$GPGSA,A,3,,,,,,,,,,,,,0.0,0.0,0.0*32
$GPRMC,175016.000,A,5920.422,N,01800.759,E,0.00,0.00,120312,,*0C
$GPGGA,175016.000,5920.422,N,01800.759,E,1,00,0.0,10.030,M,0.0,M,,*52
$GPGSA,A,3,,,,,,,,,,,,,0.0,0.0,0.0*32
$GPRMC,175017.000,A,5920.421,N,01800.760,E,0.00,0.00,120312,,*04
$GPGGA,175017.000,5920.421,N,01800.760,E,1,00,0.0,10.016,M,0.0,M,,*5E
$GPGSA,A,3,,,,,,,,,,,,,0.0,0.0,0.0*32
$GPRMC,175018.000,A,5920.421,N,01800.762,E,0.00,0.00,120312,,*09
$GPGGA,175018.000,5920.421,N,01800.762,E,1,00,0.0,9.443,M,0.0,M,,*6F
$GPGSA,A,3,,,,,,,,,,,,,0.0,0.0,0.0*32
$GPRMC,175019.000,A,5920.421,N,01800.764,E,0.00,0.00,120312,,*0E
$GPGGA,175019.000,5920.421,N,01800.764,E,1,00,0.0,9.058,M,0.0,M,,*66
$GPGSA,A,3,,,,,,,,,,,,,0.0,0.0,0.0*32
$GPRMC,175020.000,A,5920.421,N,01800.766,E,0.00,0.00,120312,,*06
$GPGGA,175020.000,5920.421,N,01800.766,E,1,00,0.0,8.808,M,0.0,M,,*62
$GPGSA,A,3,,,,,,,,,,,,,0.0,0.0,0.0*32
$GPRMC,175021.000,A,5920.421,N,01800.768,E,0.00,0.00,120312,,*09
$GPGGA,175021.000,5920.421,N,01800.768,E,1,00,0.0,11.685,M,0.0,M,,*5E
$GPGSA,A,3,,,,,,,,,,,,,0.0,0.0,0.0*32
$GPRMC,175022.000,A,5920.422,N,01800.770,E,0.00,0.00,120312,,*00
$GPGGA,175022.000,5920.422,N,01800.770,E,1,00,0.0,10.840,M,0.0,M,,*51
$GPGSA,A,3,,,,,,,,,,,,,0.0,0.0,0.0*32
$GPRMC,175023.000,A,5920.422,N,01800.772,E,0.00,0.00,120312,,*03
$GPGGA,175023.000,5920.422,N,01800.772,E,1,00,0.0,12.313,M,0.0,M,,*5D
$GPGSA,A,3,,,,,,,,,,,,,0.0,0.0,0.0*32
$GPRMC,175024.000,A,5920.422,N,01800.773,E,0.00,0.00,120312,,*05
$GPGGA,175024.000,5920.422,N,01800.773,E,1,00,0.0,10.886,M,0.0,M,,*5E
$GPGSA,A,3,,,,,,,,,,,,,0.0,0.0,0.0*32
$GPRMC,175025.000,A,5920.422,N,01800.775,E,0.00,0.00,120312,,*02
$GPGGA,175025.000,5920.422,N,01800.775,E,1,00,0.0,9.572,M,0.0,M,,*67
$GPGSA,A,3,,,,,,,,,,,,,0.0,0.0,0.0*32
$GPRMC,175026.000,A,5920.422,N,01800.777,E,0.00,0.00,120312,,*03
$GPGGA,175026.000,5920.422,N,01800.777,E,1,00,0.0,6.582,M,0.0,M,,*66
$GPGSA,A,3,,,,,,,,,,,,,0.0,0.0,0.0*32
$GPRMC,175027.000,A,5920.422,N,01800.779,E,0.00,0.00,120312,,*0C
$GPGGA,175027.000,5920.422,N,01800.779,E,1,00,0.0,8.314,M,0.0,M,,*6E
$GPGSA,A,3,,,,,,,,,,,,,0.0,0.0,0.0*32
$GPRMC,175028.000,A,5920.422,N,01800.781,E,0.00,0.00,120312,,*04
$GPGGA,175028.000,5920.422,N,01800.781,E,1,00,0.0,10.687,M,0.0,M,,*50
$GPGSA,A,3,,,,,,,,,,,,,0.0,0.0,0.0*32
$GPRMC,175029.000,A,5920.421,N,01800.782,E,0.00,0.00,120312,,*05
$GPGGA,175029.000,5920.421,N,01800.782,E,1,00,0.0,14.678,M,0.0,M,,*55
$GPGSA,A,3,,,,,,,,,,,,,0.0,0.0,0.0*32
$GPRMC,175030.000,A,5920.421,N,01800.784,E,0.00,0.00,120312,,*0B
$GPGGA,175030.000,5920.421,N,01800.784,E,1,00,0.0,17.135,M,0.0,M,,*56
$GPGSA,A,3,,,,,,,,,,,,,0.0,0.0,0.0*32
$GPRMC,175031.000,A,5920.421,N,01800.785,E,0.00,0.00,120312,,*0B
$GPGGA,175031.000,5920.421,N,01800.785,E,1,00,0.0,14.252,M,0.0,M,,*57
$GPGSA,A,3,,,,,,,,,,,,,0.0,0.0,0.0*32
$GPRMC,175032.000,A,5920.421,N,01800.787,E,0.00,0.00,120312,,*0A
$GPGGA,175032.000,5920.421,N,01800.787,E,1,00,0.0,14.618,M,0.0,M,,*5C
$GPGSA,A,3,,,,,,,,,,,,,0.0,0.0,0.0*32
$GPRMC,175033.000,A,5920.421,N,01800.788,E,0.00,0.00,120312,,*04
$GPGGA,175033.000,5920.421,N,01800.788,E,1,00,0.0,17.879,M,0.0,M,,*58
$GPGSA,A,3,,,,,,,,,,,,,0.0,0.0,0.0*32
$GPRMC,175034.000,A,5920.421,N,01800.790,E,0.00,0.00,120312,,*0A
$GPGGA,175034.000,5920.421,N,01800.790,E,1,00,0.0,11.989,M,0.0,M,,*5E
$GPGSA,A,3,,,,,,,,,,,,,0.0,0.0,0.0*32
$GPRMC,175035.000,A,5920.420,N,01800.791,E,0.00,0.00,120312,,*0B
$GPGGA,175035.000,5920.420,N,01800.791,E,1,00,0.0,6.243,M,0.0,M,,*64
$GPGSA,A,3,,,,,,,,,,,,,0.0,0.0,0.0*32
$GPRMC,175036.000,A,5920.420,N,01800.792,E,0.00,0.00,120312,,*0B
$GPGGA,175036.000,5920.420,N,01800.792,E,1,00,0.0,6.441,M,0.0,M,,*60
$GPGSA,A,3,,,,,,,,,,,,,0.0,0.0,0.0*32
$GPRMC,175037.000,A,5920.420,N,01800.793,E,0.00,0.00,120312,,*0B
$GPGGA,175037.000,5920.420,N,01800.793,E,1,00,0.0,7.097,M,0.0,M,,*6E
$GPGSA,A,3,,,,,,,,,,,,,0.0,0.0,0.0*32
$GPRMC,175038.000,A,5920.420,N,01800.794,E,0.00,0.00,120312,,*03
$GPGGA,175038.000,5920.420,N,01800.794,E,1,00,0.0,7.317,M,0.0,M,,*6D
$GPGSA,A,3,,,,,,,,,,,,,0.0,0.0,0.0*32
$GPRMC,175039.000,A,5920.420,N,01800.795,E,0.00,0.00,120312,,*03
$GPGGA,175039.000,5920.420,N,01800.795,E,1,00,0.0,4.370,M,0.0,M,,*6F
$GPGSA,A,3,,,,,,,,,,,,,0.0,0.0,0.0*32
$GPRMC,175040.000,A,5920.419,N,01800.796,E,0.00,0.00,120312,,*04
$GPGGA,175040.000,5920.419,N,01800.796,E,1,00,0.0,14.720,M,0.0,M,,*58
$GPGSA,A,3,,,,,,,,,,,,,0.0,0.0,0.0*32
$GPRMC,175041.000,A,5920.419,N,01800.797,E,0.00,0.00,120312,,*04
$GPGGA,175041.000,5920.419,N,01800.797,E,1,00,0.0,15.625,M,0.0,M,,*5D
$GPGSA,A,3,,,,,,,,,,,,,0.0,0.0,0.0*32
$GPRMC,175042.000,A,5920.419,N,01800.798,E,0.00,0.00,120312,,*08
$GPGGA,175042.000,5920.419,N,01800.798,E,1,00,0.0,13.727,M,0.0,M,,*54
$GPGSA,A,3,,,,,,,,,,,,,0.0,0.0,0.0*32
$GPRMC,175043.000,A,5920.419,N,01800.799,E,0.00,0.00,120312,,*08
$GPGGA,175043.000,5920.419,N,01800.799,E,1,00,0.0,8.319,M,0.0,M,,*67
$GPGSA,A,3,,,,,,,,,,,,,0.0,0.0,0.0*32
$GPRMC,175044.000,A,5920.419,N,01800.800,E,0.00,0.00,120312,,*00
$GPGGA,175044.000,5920.419,N,01800.800,E,1,00,0.0,8.783,M,0.0,M,,*68
$GPGSA,A,3,,,,,,,,,,,,,0.0,0.0,0.0*32
$GPRMC,175045.000,A,5920.419,N,01800.801,E,0.00,0.00,120312,,*00
$GPGGA,175045.000,5920.419,N,01800.801,E,1,00,0.0,6.744,M,0.0,M,,*6D
$GPGSA,A,3,,,,,,,,,,,,,0.0,0.0,0.0*32
$GPRMC,175046.000,A,5920.419,N,01800.802,E,0.00,0.00,120312,,*00
$GPGGA,175046.000,5920.419,N,01800.802,E,1,00,0.0,5.823,M,0.0,M,,*60
$GPGSA,A,3,,,,,,,,,,,,,0.0,0.0,0.0*32
$GPRMC,175047.000,A,5920.419,N,01800.803,E,0.00,0.00,120312,,*00
$GPGGA,175047.000,5920.419,N,01800.803,E,1,00,0.0,4.644,M,0.0,M,,*6E
$GPGSA,A,3,,,,,,,,,,,,,0.0,0.0,0.0*32
$GPRMC,175048.000,A,5920.419,N,01800.804,E,0.00,0.00,120312,,*08
$GPGGA,175048.000,5920.419,N,01800.804,E,1,00,0.0,2.337,M,0.0,M,,*61
$GPGSA,A,3,,,,,,,,,,,,,0.0,0.0,0.0*32
$GPRMC,175049.000,A,5920.419,N,01800.806,E,0.00,0.00,120312,,*0B
$GPGGA,175049.000,5920.419,N,01800.806,E,1,00,0.0,1.668,M,0.0,M,,*6E
$GPGSA,A,3,,,,,,,,,,,,,0.0,0.0,0.0*32
$GPRMC,175050.000,A,5920.419,N,01800.807,E,0.00,0.00,120312,,*02
$GPGGA,175050.000,5920.419,N,01800.807,E,1,00,0.0,0.392,M,0.0,M,,*66
$GPGSA,A,3,,,,,,,,,,,,,0.0,0.0,0.0*32
$GPRMC,175051.000,A,5920.420,N,01800.808,E,0.00,0.00,120312,,*06
$GPGGA,175051.000,5920.420,N,01800.808,E,1,00,0.0,0.000,M,0.0,M,,*6A
$GPGSA,A,3,,,,,,,,,,,,,0.0,0.0,0.0*32
$GPRMC,175052.000,A,5920.421,N,01800.809,E,0.00,0.00,120312,,*05
$GPGGA,175052.000,5920.421,N,01800.809,E,1,00,0.0,0.000,M,0.0,M,,*69
$GPGSA,A,3,,,,,,,,,,,,,0.0,0.0,0.0*32
$GPRMC,175053.000,A,5920.422,N,01800.810,E,0.00,0.00,120312,,*0F
$GPGGA,175053.000,5920.422,N,01800.810,E,1,00,0.0,0.382,M,0.0,M,,*6A
$GPGSA,A,3,,,,,,,,,,,,,0.0,0.0,0.0*32
$GPRMC,175054.000,A,5920.423,N,01800.812,E,0.00,0.00,120312,,*0B
$GPGGA,175054.000,5920.423,N,01800.812,E,1,00,0.0,3.735,M,0.0,M,,*65
$GPGSA,A,3,,,,,,,,,,,,,0.0,0.0,0.0*32
$GPRMC,175055.000,A,5920.423,N,01800.813,E,0.00,0.00,120312,,*0B
$GPGGA,175055.000,5920.423,N,01800.813,E,1,00,0.0,2.119,M,0.0,M,,*6C
$GPGSA,A,3,,,,,,,,,,,,,0.0,0.0,0.0*32
$GPRMC,175056.000,A,5920.424,N,01800.815,E,0.00,0.00,120312,,*09
$GPGGA,175056.000,5920.424,N,01800.815,E,1,00,0.0,1.513,M,0.0,M,,*63
$GPGSA,A,3,,,,,,,,,,,,,0.0,0.0,0.0*32
$GPRMC,175057.000,A,5920.424,N,01800.816,E,0.00,0.00,120312,,*0B
$GPGGA,175057.000,5920.424,N,01800.816,E,1,00,0.0,3.589,M,0.0,M,,*60
$GPGSA,A,3,,,,,,,,,,,,,0.0,0.0,0.0*32
$GPRMC,175058.000,A,5920.425,N,01800.817,E,0.00,0.00,120312,,*04
$GPGGA,175058.000,5920.425,N,01800.817,E,1,00,0.0,4.475,M,0.0,M,,*6A
$GPGSA,A,3,,,,,,,,,,,,,0.0,0.0,0.0*32
$GPRMC,175059.000,A,5920.425,N,01800.819,E,0.00,0.00,120312,,*0B
$GPGGA,175059.000,5920.425,N,01800.819,E,1,00,0.0,4.852,M,0.0,M,,*6C
$GPGSA,A,3,,,,,,,,,,,,,0.0,0.0,0.0*32
$GPRMC,175100.000,A,5920.426,N,01800.820,E,0.00,0.00,120312,,*0F
$GPGGA,175100.000,5920.426,N,01800.820,E,1,00,0.0,1.537,M,0.0,M,,*63
$GPGSA,A,3,,,,,,,,,,,,,0.0,0.0,0.0*32
$GPRMC,175101.000,A,5920.426,N,01800.821,E,0.00,0.00,120312,,*0F
$GPGGA,175101.000,5920.426,N,01800.821,E,1,00,0.0,2.214,M,0.0,M,,*66
$GPGSA,A,3,,,,,,,,,,,,,0.0,0.0,0.0*32
$GPRMC,175102.000,A,5920.427,N,01800.823,E,0.00,0.00,120312,,*0F
$GPGGA,175102.000,5920.427,N,01800.823,E,1,00,0.0,3.145,M,0.0,M,,*60
$GPGSA,A,3,,,,,,,,,,,,,0.0,0.0,0.0*32
$GPRMC,175103.000,A,5920.427,N,01800.824,E,0.00,0.00,120312,,*09
$GPGGA,175103.000,5920.427,N,01800.824,E,1,00,0.0,1.721,M,0.0,M,,*60
$GPGSA,A,3,,,,,,,,,,,,,0.0,0.0,0.0*32
$GPRMC,175104.000,A,5920.427,N,01800.825,E,0.00,0.00,120312,,*0F
$GPGGA,175104.000,5920.427,N,01800.825,E,1,00,0.0,0.000,M,0.0,M,,*63
$GPGSA,A,3,,,,,,,,,,,,,0.0,0.0,0.0*32
$GPRMC,175105.000,A,5920.427,N,01800.827,E,0.00,0.00,120312,,*0C
$GPGGA,175105.000,5920.427,N,01800.827,E,1,00,0.0,2.002,M,0.0,M,,*60
$GPGSA,A,3,,,,,,,,,,,,,0.0,0.0,0.0*32
$GPRMC,175106.000,A,5920.428,N,01800.828,E,0.00,0.00,120312,,*0F
$GPGGA,175106.000,5920.428,N,01800.828,E,1,00,0.0,1.628,M,0.0,M,,*6E
$GPGSA,A,3,,,,,,,,,,,,,0.0,0.0,0.0*32
$GPRMC,175107.000,A,5920.428,N,01800.830,E,0.00,0.00,120312,,*07
$GPGGA,175107.000,5920.428,N,01800.830,E,1,00,0.0,0.000,M,0.0,M,,*6B
$GPGSA,A,3,,,,,,,,,,,,,0.0,0.0,0.0*32
$GPRMC,175108.000,A,5920.428,N,01800.831,E,0.00,0.00,120312,,*09
$GPGGA,175108.000,5920.428,N,01800.831,E,1,00,0.0,0.000,M,0.0,M,,*65
$GPGSA,A,3,,,,,,,,,,,,,0.0,0.0,0.0*32
$GPRMC,175109.000,A,5920.428,N,01800.832,E,0.00,0.00,120312,,*0B
$GPGGA,175109.000,5920.428,N,01800.832,E,1,00,0.0,0.000,M,0.0,M,,*67
$GPGSA,A,3,,,,,,,,,,,,,0.0,0.0,0.0*32
$GPRMC,175110.000,A,5920.428,N,01800.833,E,0.00,0.00,120312,,*02
$GPGGA,175110.000,5920.428,N,01800.833,E,1,00,0.0,0.000,M,0.0,M,,*6E
$GPGSA,A,3,,,,,,,,,,,,,0.0,0.0,0.0*32
$GPRMC,175111.000,A,5920.429,N,01800.835,E,0.00,0.00,120312,,*04
$GPGGA,175111.000,5920.429,N,01800.835,E,1,00,0.0,0.000,M,0.0,M,,*68
$GPGSA,A,3,,,,,,,,,,,,,0.0,0.0,0.0*32
$GPRMC,175112.000,A,5920.428,N,01800.835,E,0.00,0.00,120312,,*06
$GPGGA,175112.000,5920.428,N,01800.835,E,1,00,0.0,0.000,M,0.0,M,,*6A
$GPGSA,A,3,,,,,,,,,,,,,0.0,0.0,0.0*32
$GPRMC,175113.000,A,5920.429,N,01800.837,E,0.00,0.00,120312,,*04
$GPGGA,175113.000,5920.429,N,01800.837,E,1,00,0.0,1.550,M,0.0,M,,*69
$GPGSA,A,3,,,,,,,,,,,,,0.0,0.0,0.0*32
$GPRMC,175114.000,A,5920.429,N,01800.838,E,0.00,0.00,120312,,*0C
$GPGGA,175114.000,5920.429,N,01800.838,E,1,00,0.0,2.245,M,0.0,M,,*61
$GPGSA,A,3,,,,,,,,,,,,,0.0,0.0,0.0*32
$GPRMC,175115.000,A,5920.429,N,01800.839,E,0.00,0.00,120312,,*0C
$GPGGA,175115.000,5920.429,N,01800.839,E,1,00,0.0,4.941,M,0.0,M,,*68
$GPGSA,A,3,,,,,,,,,,,,,0.0,0.0,0.0*32
$GPRMC,175116.000,A,5920.428,N,01800.836,E,0.00,0.00,120312,,*01
$GPGGA,175116.000,5920.428,N,01800.836,E,1,00,0.0,7.661,M,0.0,M,,*6B
$GPGSA,A,3,,,,,,,,,,,,,0.0,0.0,0.0*32
$GPRMC,175117.000,A,5920.428,N,01800.836,E,0.00,0.00,120312,,*00
$GPGGA,175117.000,5920.428,N,01800.836,E,1,00,0.0,8.469,M,0.0,M,,*6F
$GPGSA,A,3,,,,,,,,,,,,,0.0,0.0,0.0*32
$GPRMC,175118.000,A,5920.427,N,01800.834,E,0.00,0.00,120312,,*02
$GPGGA,175118.000,5920.427,N,01800.834,E,1,00,0.0,8.600,M,0.0,M,,*60
$GPGSA,A,3,,,,,,,,,,,,,0.0,0.0,0.0*32
$GPRMC,175119.000,A,5920.427,N,01800.833,E,0.00,0.00,120312,,*04
$GPGGA,175119.000,5920.427,N,01800.833,E,1,00,0.0,7.075,M,0.0,M,,*6D
$GPGSA,A,3,,,,,,,,,,,,,0.0,0.0,0.0*32
$GPRMC,175120.000,A,5920.427,N,01800.833,E,0.00,0.00,120312,,*0E
$GPGGA,175120.000,5920.427,N,01800.833,E,1,00,0.0,6.856,M,0.0,M,,*6F
$GPGSA,A,3,,,,,,,,,,,,,0.0,0.0,0.0*32
$GPRMC,175121.000,A,5920.427,N,01800.833,E,0.00,0.00,120312,,*0F
$GPGGA,175121.000,5920.427,N,01800.833,E,1,00,0.0,6.679,M,0.0,M,,*6D
$GPGSA,A,3,,,,,,,,,,,,,0.0,0.0,0.0*32
$GPRMC,175122.000,A,5920.427,N,01800.833,E,0.00,0.00,120312,,*0C
$GPGGA,175122.000,5920.427,N,01800.833,E,1,00,0.0,8.238,M,0.0,M,,*61
$GPGSA,A,3,,,,,,,,,,,,,0.0,0.0,0.0*32
$GPRMC,175123.000,A,5920.427,N,01800.834,E,0.00,0.00,120312,,*0A
$GPGGA,175123.000,5920.427,N,01800.834,E,1,00,0.0,7.235,M,0.0,M,,*65
$GPGSA,A,3,,,,,,,,,,,,,0.0,0.0,0.0*32
$GPRMC,175124.000,A,5920.427,N,01800.834,E,0.00,0.00,120312,,*0D
$GPGGA,175124.000,5920.427,N,01800.834,E,1,00,0.0,6.677,M,0.0,M,,*61
$GPGSA,A,3,,,,,,,,,,,,,0.0,0.0,0.0*32
$GPRMC,175125.000,A,5920.427,N,01800.834,E,0.00,0.00,120312,,*0C
$GPGGA,175125.000,5920.427,N,01800.834,E,1,00,0.0,6.168,M,0.0,M,,*69
$GPGSA,A,3,,,,,,,,,,,,,0.0,0.0,0.0*32
$GPRMC,175126.000,A,5920.427,N,01800.834,E,0.00,0.00,120312,,*0F
$GPGGA,175126.000,5920.427,N,01800.834,E,1,00,0.0,5.535,M,0.0,M,,*65
$GPGSA,A,3,,,,,,,,,,,,,0.0,0.0,0.0*32
$GPRMC,175127.000,A,5920.427,N,01800.834,E,0.00,0.00,120312,,*0E
$GPGGA,175127.000,5920.427,N,01800.834,E,1,00,0.0,4.634,M,0.0,M,,*67
$GPGSA,A,3,,,,,,,,,,,,,0.0,0.0,0.0*32
$GPRMC,175128.000,A,5920.427,N,01800.833,E,0.00,0.00,120312,,*06
$GPGGA,175128.000,5920.427,N,01800.833,E,1,00,0.0,5.408,M,0.0,M,,*63
$GPGSA,A,3,,,,,,,,,,,,,0.0,0.0,0.0*32
$GPRMC,175129.000,A,5920.427,N,01800.833,E,0.00,0.00,120312,,*07
$GPGGA,175129.000,5920.427,N,01800.833,E,1,00,0.0,5.268,M,0.0,M,,*62
$GPGSA,A,3,,,,,,,,,,,,,0.0,0.0,0.0*32
$GPRMC,175130.000,A,5920.426,N,01800.833,E,0.00,0.00,120312,,*0E
$GPGGA,175130.000,5920.426,N,01800.833,E,1,00,0.0,5.721,M,0.0,M,,*63
$GPGSA,A,3,,,,,,,,,,,,,0.0,0.0,0.0*32
$GPRMC,175131.000,A,5920.426,N,01800.832,E,0.00,0.00,120312,,*0E
$GPGGA,175131.000,5920.426,N,01800.832,E,1,00,0.0,7.113,M,0.0,M,,*66
$GPGSA,A,3,,,,,,,,,,,,,0.0,0.0,0.0*32
$GPRMC,175132.000,A,5920.426,N,01800.830,E,0.00,0.00,120312,,*0F
$GPGGA,175132.000,5920.426,N,01800.830,E,1,00,0.0,7.269,M,0.0,M,,*69
$GPGSA,A,3,,,,,,,,,,,,,0.0,0.0,0.0*32
$GPRMC,175133.000,A,5920.426,N,01800.829,E,0.00,0.00,120312,,*06
$GPGGA,175133.000,5920.426,N,01800.829,E,1,00,0.0,5.397,M,0.0,M,,*62
$GPGSA,A,3,,,,,,,,,,,,,0.0,0.0,0.0*32
$GPRMC,175134.000,A,5920.426,N,01800.829,E,0.00,0.00,120312,,*01
$GPGGA,175134.000,5920.426,N,01800.829,E,1,00,0.0,1.416,M,0.0,M,,*6F
$GPGSA,A,3,,,,,,,,,,,,,0.0,0.0,0.0*32
$GPRMC,175135.000,A,5920.426,N,01800.829,E,0.00,0.00,120312,,*00
$GPGGA,175135.000,5920.426,N,01800.829,E,1,00,0.0,0.048,M,0.0,M,,*60
$GPGSA,A,3,,,,,,,,,,,,,0.0,0.0,0.0*32
$GPRMC,175136.000,A,5920.426,N,01800.830,E,0.00,0.00,120312,,*0B
$GPGGA,175136.000,5920.426,N,01800.830,E,1,00,0.0,2.890,M,0.0,M,,*64
$GPGSA,A,3,,,,,,,,,,,,,0.0,0.0,0.0*32
$GPRMC,175137.000,A,5920.426,N,01800.830,E,0.00,0.00,120312,,*0A
$GPGGA,175137.000,5920.426,N,01800.830,E,1,00,0.0,3.598,M,0.0,M,,*61
$GPGSA,A,3,,,,,,,,,,,,,0.0,0.0,0.0*32
$GPRMC,175138.000,A,5920.426,N,01800.831,E,0.00,0.00,120312,,*04
$GPGGA,175138.000,5920.426,N,01800.831,E,1,00,0.0,4.598,M,0.0,M,,*68
$GPGSA,A,3,,,,,,,,,,,,,0.0,0.0,0.0*32
$GPRMC,175139.000,A,5920.426,N,01800.832,E,0.00,0.00,120312,,*06
$GPGGA,175139.000,5920.426,N,01800.832,E,1,00,0.0,5.032,M,0.0,M,,*6E
$GPGSA,A,3,,,,,,,,,,,,,0.0,0.0,0.0*32
$GPRMC,175140.000,A,5920.426,N,01800.833,E,0.00,0.00,120312,,*09
$GPGGA,175140.000,5920.426,N,01800.833,E,1,00,0.0,5.768,M,0.0,M,,*69
$GPGSA,A,3,,,,,,,,,,,,,0.0,0.0,0.0*32
$GPRMC,175141.000,A,5920.426,N,01800.833,E,0.00,0.00,120312,,*08
$GPGGA,175141.000,5920.426,N,01800.833,E,1,00,0.0,4.481,M,0.0,M,,*6D
$GPGSA,A,3,,,,,,,,,,,,,0.0,0.0,0.0*32
$GPRMC,175142.000,A,5920.426,N,01800.834,E,0.00,0.00,120312,,*0C
$GPGGA,175142.000,5920.426,N,01800.834,E,1,00,0.0,4.222,M,0.0,M,,*66
$GPGSA,A,3,,,,,,,,,,,,,0.0,0.0,0.0*32
$GPRMC,175143.000,A,5920.426,N,01800.834,E,0.00,0.00,120312,,*0D
$GPGGA,175143.000,5920.426,N,01800.834,E,1,00,0.0,6.327,M,0.0,M,,*61
$GPGSA,A,3,,,,,,,,,,,,,0.0,0.0,0.0*32
$GPRMC,175144.000,A,5920.426,N,01800.834,E,0.00,0.00,120312,,*0A
$GPGGA,175144.000,5920.426,N,01800.834,E,1,00,0.0,5.679,M,0.0,M,,*6B
$GPGSA,A,3,,,,,,,,,,,,,0.0,0.0,0.0*32
$GPRMC,175145.000,A,5920.426,N,01800.834,E,0.00,0.00,120312,,*0B
$GPGGA,175145.000,5920.426,N,01800.834,E,1,00,0.0,7.139,M,0.0,M,,*6B
$GPGSA,A,3,,,,,,,,,,,,,0.0,0.0,0.0*32
$GPRMC,175146.000,A,5920.426,N,01800.835,E,0.00,0.00,120312,,*09
$GPGGA,175146.000,5920.426,N,01800.835,E,1,00,0.0,7.663,M,0.0,M,,*61
$GPGSA,A,3,,,,,,,,,,,,,0.0,0.0,0.0*32
$GPRMC,175147.000,A,5920.427,N,01800.835,E,0.00,0.00,120312,,*09
$GPGGA,175147.000,5920.427,N,01800.835,E,1,00,0.0,7.539,M,0.0,M,,*6D
$GPGSA,A,3,,,,,,,,,,,,,0.0,0.0,0.0*32
$GPRMC,175148.000,A,5920.426,N,01800.837,E,0.00,0.00,120312,,*05
$GPGGA,175148.000,5920.426,N,01800.837,E,1,00,0.0,7.594,M,0.0,M,,*66
$GPGSA,A,3,,,,,,,,,,,,,0.0,0.0,0.0*32
$GPRMC,175149.000,A,5920.426,N,01800.838,E,0.00,0.00,120312,,*0B
$GPGGA,175149.000,5920.426,N,01800.838,E,1,00,0.0,7.956,M,0.0,M,,*6A
$GPGSA,A,3,,,,,,,,,,,,,0.0,0.0,0.0*32
$GPRMC,175150.000,A,5920.426,N,01800.840,E,0.00,0.00,120312,,*0C
$GPGGA,175150.000,5920.426,N,01800.840,E,1,00,0.0,8.720,M,0.0,M,,*6D
$GPGSA,A,3,,,,,,,,,,,,,0.0,0.0,0.0*32
$GPRMC,175151.000,A,5920.426,N,01800.840,E,0.00,0.00,120312,,*0D
$GPGGA,175151.000,5920.426,N,01800.840,E,1,00,0.0,9.248,M,0.0,M,,*66
$GPGSA,A,3,,,,,,,,,,,,,0.0,0.0,0.0*32
$GPRMC,175152.000,A,5920.426,N,01800.841,E,0.00,0.00,120312,,*0F
$GPGGA,175152.000,5920.426,N,01800.841,E,1,00,0.0,6.616,M,0.0,M,,*64
$GPGSA,A,3,,,,,,,,,,,,,0.0,0.0,0.0*32
$GPRMC,175153.000,A,5920.426,N,01800.841,E,0.00,0.00,120312,,*0E
$GPGGA,175153.000,5920.426,N,01800.841,E,1,00,0.0,4.331,M,0.0,M,,*67
$GPGSA,A,3,,,,,,,,,,,,,0.0,0.0,0.0*32
$GPRMC,175154.000,A,5920.426,N,01800.842,E,0.00,0.00,120312,,*0A
$GPGGA,175154.000,5920.426,N,01800.842,E,1,00,0.0,4.051,M,0.0,M,,*66
$GPGSA,A,3,,,,,,,,,,,,,0.0,0.0,0.0*32
$GPRMC,175155.000,A,5920.426,N,01800.842,E,0.00,0.00,120312,,*0B
$GPGGA,175155.000,5920.426,N,01800.842,E,1,00,0.0,4.063,M,0.0,M,,*66
$GPGSA,A,3,,,,,,,,,,,,,0.0,0.0,0.0*32
$GPRMC,175156.000,A,5920.426,N,01800.843,E,0.00,0.00,120312,,*09
$GPGGA,175156.000,5920.426,N,01800.843,E,1,00,0.0,3.872,M,0.0,M,,*6B
$GPGSA,A,3,,,,,,,,,,,,,0.0,0.0,0.0*32
$GPRMC,175157.000,A,5920.426,N,01800.843,E,0.00,0.00,120312,,*08
$GPGGA,175157.000,5920.426,N,01800.843,E,1,00,0.0,3.778,M,0.0,M,,*6F
$GPGSA,A,3,,,,,,,,,,,,,0.0,0.0,0.0*32
$GPRMC,175158.000,A,5920.425,N,01800.844,E,0.00,0.00,120312,,*03
$GPGGA,175158.000,5920.425,N,01800.844,E,1,00,0.0,3.370,M,0.0,M,,*68
$GPGSA,A,3,,,,,,,,,,,,,0.0,0.0,0.0*32
$GPRMC,175159.000,A,5920.425,N,01800.844,E,0.00,0.00,120312,,*02
$GPGGA,175159.000,5920.425,N,01800.844,E,1,00,0.0,1.562,M,0.0,M,,*6E
$GPGSA,A,3,,,,,,,,,,,,,0.0,0.0,0.0*32
$GPRMC,175200.000,A,5920.425,N,01800.844,E,0.00,0.00,120312,,*0D
$GPGGA,175200.000,5920.425,N,01800.844,E,1,00,0.0,3.816,M,0.0,M,,*6D
$GPGSA,A,3,,,,,,,,,,,,,0.0,0.0,0.0*32
$GPRMC,175201.000,A,5920.425,N,01800.845,E,0.00,0.00,120312,,*0D
$GPGGA,175201.000,5920.425,N,01800.845,E,1,00,0.0,3.608,M,0.0,M,,*6C
$GPGSA,A,3,,,,,,,,,,,,,0.0,0.0,0.0*32
$GPRMC,175202.000,A,5920.425,N,01800.845,E,0.00,0.00,120312,,*0E
$GPGGA,175202.000,5920.425,N,01800.845,E,1,00,0.0,3.729,M,0.0,M,,*6D
$GPGSA,A,3,,,,,,,,,,,,,0.0,0.0,0.0*32
$GPRMC,175203.000,A,5920.425,N,01800.846,E,0.00,0.00,120312,,*0C
$GPGGA,175203.000,5920.425,N,01800.846,E,1,00,0.0,4.829,M,0.0,M,,*67
$GPGSA,A,3,,,,,,,,,,,,,0.0,0.0,0.0*32
$GPRMC,175204.000,A,5920.425,N,01800.847,E,0.00,0.00,120312,,*0A
$GPGGA,175204.000,5920.425,N,01800.847,E,1,00,0.0,4.463,M,0.0,M,,*63
$GPGSA,A,3,,,,,,,,,,,,,0.0,0.0,0.0*32
$GPRMC,175205.000,A,5920.425,N,01800.849,E,0.00,0.00,120312,,*05
$GPGGA,175205.000,5920.425,N,01800.849,E,1,00,0.0,2.808,M,0.0,M,,*6B
$GPGSA,A,3,,,,,,,,,,,,,0.0,0.0,0.0*32
$GPRMC,175206.000,A,5920.424,N,01800.850,E,0.00,0.00,120312,,*0F
$GPGGA,175206.000,5920.424,N,01800.850,E,1,00,0.0,2.391,M,0.0,M,,*6A
$GPGSA,A,3,,,,,,,,,,,,,0.0,0.0,0.0*32
$GPRMC,175207.000,A,5920.424,N,01800.852,E,0.00,0.00,120312,,*0C
$GPGGA,175207.000,5920.424,N,01800.852,E,1,00,0.0,1.520,M,0.0,M,,*66
$GPGSA,A,3,,,,,,,,,,,,,0.0,0.0,0.0*32
$GPRMC,175208.000,A,5920.424,N,01800.853,E,0.00,0.00,120312,,*02
$GPGGA,175208.000,5920.424,N,01800.853,E,1,00,0.0,2.690,M,0.0,M,,*63
$GPGSA,A,3,,,,,,,,,,,,,0.0,0.0,0.0*32
$GPRMC,175209.000,A,5920.424,N,01800.856,E,0.00,0.00,120312,,*06
$GPGGA,175209.000,5920.424,N,01800.856,E,1,00,0.0,2.736,M,0.0,M,,*6A
$GPGSA,A,3,,,,,,,,,,,,,0.0,0.0,0.0*32
$GPRMC,175210.000,A,5920.424,N,01800.858,E,0.00,0.00,120312,,*00
$GPGGA,175210.000,5920.424,N,01800.858,E,1,00,0.0,3.204,M,0.0,M,,*69
$GPGSA,A,3,,,,,,,,,,,,,0.0,0.0,0.0*32
$GPRMC,175211.000,A,5920.423,N,01800.860,E,0.00,0.00,120312,,*0D
$GPGGA,175211.000,5920.423,N,01800.860,E,1,00,0.0,4.029,M,0.0,M,,*6E
$GPGSA,A,3,,,,,,,,,,,,,0.0,0.0,0.0*32
$GPRMC,175212.000,A,5920.423,N,01800.862,E,0.00,0.00,120312,,*0C
$GPGGA,175212.000,5920.423,N,01800.862,E,1,00,0.0,4.661,M,0.0,M,,*65
$GPGSA,A,3,,,,,,,,,,,,,0.0,0.0,0.0*32
$GPRMC,175213.000,A,5920.423,N,01800.864,E,0.00,0.00,120312,,*0B
$GPGGA,175213.000,5920.423,N,01800.864,E,1,00,0.0,4.753,M,0.0,M,,*62
$GPGSA,A,3,,,,,,,,,,,,,0.0,0.0,0.0*32
$GPRMC,175214.000,A,5920.423,N,01800.866,E,0.00,0.00,120312,,*0E
$GPGGA,175214.000,5920.423,N,01800.866,E,1,00,0.0,1.957,M,0.0,M,,*68
$GPGSA,A,3,,,,,,,,,,,,,0.0,0.0,0.0*32
$GPRMC,175215.000,A,5920.423,N,01800.867,E,0.00,0.00,120312,,*0E
$GPGGA,175215.000,5920.423,N,01800.867,E,1,00,0.0,2.328,M,0.0,M,,*69
$GPGSA,A,3,,,,,,,,,,,,,0.0,0.0,0.0*32
$GPRMC,175216.000,A,5920.423,N,01800.869,E,0.00,0.00,120312,,*03
$GPGGA,175216.000,5920.423,N,01800.869,E,1,00,0.0,1.469,M,0.0,M,,*65
$GPGSA,A,3,,,,,,,,,,,,,0.0,0.0,0.0*32
$GPRMC,175217.000,A,5920.423,N,01800.871,E,0.00,0.00,120312,,*0B
$GPGGA,175217.000,5920.423,N,01800.871,E,1,00,0.0,3.146,M,0.0,M,,*67
$GPGSA,A,3,,,,,,,,,,,,,0.0,0.0,0.0*32
$GPRMC,175218.000,A,5920.422,N,01800.873,E,0.00,0.00,120312,,*07
$GPGGA,175218.000,5920.422,N,01800.873,E,1,00,0.0,3.007,M,0.0,M,,*6F
$GPGSA,A,3,,,,,,,,,,,,,0.0,0.0,0.0*32
$GPRMC,175219.000,A,5920.422,N,01800.875,E,0.00,0.00,120312,,*00
$GPGGA,175219.000,5920.422,N,01800.875,E,1,00,0.0,4.287,M,0.0,M,,*65
$GPGSA,A,3,,,,,,,,,,,,,0.0,0.0,0.0*32
$GPRMC,175220.000,A,5920.422,N,01800.877,E,0.00,0.00,120312,,*08
$GPGGA,175220.000,5920.422,N,01800.877,E,1,00,0.0,0.410,M,0.0,M,,*61
$GPGSA,A,3,,,,,,,,,,,,,0.0,0.0,0.0*32
$GPRMC,175221.000,A,5920.422,N,01800.879,E,0.00,0.00,120312,,*07
$GPGGA,175221.000,5920.422,N,01800.879,E,1,00,0.0,0.536,M,0.0,M,,*6B
$GPGSA,A,3,,,,,,,,,,,,,0.0,0.0,0.0*32
$GPRMC,175222.000,A,5920.421,N,01800.881,E,0.00,0.00,120312,,*00
$GPGGA,175222.000,5920.421,N,01800.881,E,1,00,0.0,0.845,M,0.0,M,,*65
$GPGSA,A,3,,,,,,,,,,,,,0.0,0.0,0.0*32
$GPRMC,175223.000,A,5920.421,N,01800.883,E,0.00,0.00,120312,,*03
$GPGGA,175223.000,5920.421,N,01800.883,E,1,00,0.0,0.000,M,0.0,M,,*6F
$GPGSA,A,3,,,,,,,,,,,,,0.0,0.0,0.0*32
$GPRMC,175224.000,A,5920.421,N,01800.885,E,0.00,0.00,120312,,*02
$GPGGA,175224.000,5920.421,N,01800.885,E,1,00,0.0,1.545,M,0.0,M,,*6B
$GPGSA,A,3,,,,,,,,,,,,,0.0,0.0,0.0*32
$GPRMC,175225.000,A,5920.421,N,01800.886,E,0.00,0.00,120312,,*00
$GPGGA,175225.000,5920.421,N,01800.886,E,1,00,0.0,0.980,M,0.0,M,,*6D
$GPGSA,A,3,,,,,,,,,,,,,0.0,0.0,0.0*32
$GPRMC,175226.000,A,5920.420,N,01800.888,E,0.00,0.00,120312,,*0C
$GPGGA,175226.000,5920.420,N,01800.888,E,1,00,0.0,0.743,M,0.0,M,,*60
$GPGSA,A,3,,,,,,,,,,,,,0.0,0.0,0.0*32
$GPRMC,175227.000,A,5920.420,N,01800.890,E,0.00,0.00,120312,,*04
$GPGGA,175227.000,5920.420,N,01800.890,E,1,00,0.0,1.412,M,0.0,M,,*6E
$GPGSA,A,3,,,,,,,,,,,,,0.0,0.0,0.0*32
$GPRMC,175228.000,A,5920.420,N,01800.891,E,0.00,0.00,120312,,*0A
$GPGGA,175228.000,5920.420,N,01800.891,E,1,00,0.0,0.000,M,0.0,M,,*66
$GPGSA,A,3,,,,,,,,,,,,,0.0,0.0,0.0*32
$GPRMC,175229.000,A,5920.420,N,01800.893,E,0.00,0.00,120312,,*09
$GPGGA,175229.000,5920.420,N,01800.893,E,1,00,0.0,2.297,M,0.0,M,,*6B
$GPGSA,A,3,,,,,,,,,,,,,0.0,0.0,0.0*32
$GPRMC,175230.000,A,5920.420,N,01800.894,E,0.00,0.00,120312,,*06
$GPGGA,175230.000,5920.420,N,01800.894,E,1,00,0.0,3.540,M,0.0,M,,*68
$GPGSA,A,3,,,,,,,,,,,,,0.0,0.0,0.0*32
$GPRMC,175231.000,A,5920.419,N,01800.896,E,0.00,0.00,120312,,*0F
$GPGGA,175231.000,5920.419,N,01800.896,E,1,00,0.0,4.791,M,0.0,M,,*68
$GPGSA,A,3,,,,,,,,,,,,,0.0,0.0,0.0*32
$GPRMC,175232.000,A,5920.419,N,01800.897,E,0.00,0.00,120312,,*0D
$GPGGA,175232.000,5920.419,N,01800.897,E,1,00,0.0,2.932,M,0.0,M,,*6B
$GPGSA,A,3,,,,,,,,,,,,,0.0,0.0,0.0*32
$GPRMC,175233.000,A,5920.419,N,01800.898,E,0.00,0.00,120312,,*03
$GPGGA,175233.000,5920.419,N,01800.898,E,1,00,0.0,2.852,M,0.0,M,,*62
$GPGSA,A,3,,,,,,,,,,,,,0.0,0.0,0.0*32
$GPRMC,175234.000,A,5920.419,N,01800.900,E,0.00,0.00,120312,,*04
$GPGGA,175234.000,5920.419,N,01800.900,E,1,00,0.0,3.230,M,0.0,M,,*6A
$GPGSA,A,3,,,,,,,,,,,,,0.0,0.0,0.0*32
$GPRMC,175235.000,A,5920.418,N,01800.901,E,0.00,0.00,120312,,*05
$GPGGA,175235.000,5920.418,N,01800.901,E,1,00,0.0,4.771,M,0.0,M,,*6C
$GPGSA,A,3,,,,,,,,,,,,,0.0,0.0,0.0*32
$GPRMC,175236.000,A,5920.418,N,01800.903,E,0.00,0.00,120312,,*04
$GPGGA,175236.000,5920.418,N,01800.903,E,1,00,0.0,6.038,M,0.0,M,,*65
$GPGSA,A,3,,,,,,,,,,,,,0.0,0.0,0.0*32
$GPRMC,175237.000,A,5920.418,N,01800.904,E,0.00,0.00,120312,,*02
$GPGGA,175237.000,5920.418,N,01800.904,E,1,00,0.0,3.763,M,0.0,M,,*6F
$GPGSA,A,3,,,,,,,,,,,,,0.0,0.0,0.0*32
$GPRMC,175238.000,A,5920.418,N,01800.905,E,0.00,0.00,120312,,*0C
$GPGGA,175238.000,5920.418,N,01800.905,E,1,00,0.0,2.174,M,0.0,M,,*60
$GPGSA,A,3,,,,,,,,,,,,,0.0,0.0,0.0*32
$GPRMC,175239.000,A,5920.418,N,01800.907,E,0.00,0.00,120312,,*0F
$GPGGA,175239.000,5920.418,N,01800.907,E,1,00,0.0,2.286,M,0.0,M,,*6D
$GPGSA,A,3,,,,,,,,,,,,,0.0,0.0,0.0*32
$GPRMC,175240.000,A,5920.417,N,01800.909,E,0.00,0.00,120312,,*00
$GPGGA,175240.000,5920.417,N,01800.909,E,1,00,0.0,0.137,M,0.0,M,,*69
$GPGSA,A,3,,,,,,,,,,,,,0.0,0.0,0.0*32
$GPRMC,175241.000,A,5920.417,N,01800.910,E,0.00,0.00,120312,,*09
$GPGGA,175241.000,5920.417,N,01800.910,E,1,00,0.0,0.348,M,0.0,M,,*6A
$GPGSA,A,3,,,,,,,,,,,,,0.0,0.0,0.0*32
$GPRMC,175242.000,A,5920.417,N,01800.912,E,0.00,0.00,120312,,*08
$GPGGA,175242.000,5920.417,N,01800.912,E,1,00,0.0,0.000,M,0.0,M,,*64
$GPGSA,A,3,,,,,,,,,,,,,0.0,0.0,0.0*32
$GPRMC,175243.000,A,5920.416,N,01800.913,E,0.00,0.00,120312,,*09
$GPGGA,175243.000,5920.416,N,01800.913,E,1,00,0.0,0.839,M,0.0,M,,*67
$GPGSA,A,3,,,,,,,,,,,,,0.0,0.0,0.0*32
$GPRMC,175244.000,A,5920.416,N,01800.914,E,0.00,0.00,120312,,*09
$GPGGA,175244.000,5920.416,N,01800.914,E,1,00,0.0,0.000,M,0.0,M,,*65
$GPGSA,A,3,,,,,,,,,,,,,0.0,0.0,0.0*32
$GPRMC,175245.000,A,5920.416,N,01800.916,E,0.00,0.00,120312,,*0A
$GPGGA,175245.000,5920.416,N,01800.916,E,1,00,0.0,0.000,M,0.0,M,,*66
$GPGSA,A,3,,,,,,,,,,,,,0.0,0.0,0.0*32
$GPRMC,175246.000,A,5920.415,N,01800.917,E,0.00,0.00,120312,,*0B
$GPGGA,175246.000,5920.415,N,01800.917,E,1,00,0.0,0.163,M,0.0,M,,*63
$GPGSA,A,3,,,,,,,,,,,,,0.0,0.0,0.0*32
$GPRMC,175247.000,A,5920.415,N,01800.919,E,0.00,0.00,120312,,*04
$GPGGA,175247.000,5920.415,N,01800.919,E,1,00,0.0,0.716,M,0.0,M,,*68
$GPGSA,A,3,,,,,,,,,,,,,0.0,0.0,0.0*32
$GPRMC,175248.000,A,5920.414,N,01800.920,E,0.00,0.00,120312,,*00
$GPGGA,175248.000,5920.414,N,01800.920,E,1,00,0.0,0.000,M,0.0,M,,*6C
$GPGSA,A,3,,,,,,,,,,,,,0.0,0.0,0.0*32
$GPRMC,175249.000,A,5920.414,N,01800.921,E,0.00,0.00,120312,,*00
$GPGGA,175249.000,5920.414,N,01800.921,E,1,00,0.0,0.000,M,0.0,M,,*6C
$GPGSA,A,3,,,,,,,,,,,,,0.0,0.0,0.0*32
$GPRMC,175250.000,A,5920.413,N,01800.922,E,0.00,0.00,120312,,*0C
$GPGGA,175250.000,5920.413,N,01800.922,E,1,00,0.0,0.000,M,0.0,M,,*60
$GPGSA,A,3,,,,,,,,,,,,,0.0,0.0,0.0*32
$GPRMC,175251.000,A,5920.412,N,01800.923,E,0.00,0.00,120312,,*0D
$GPGGA,175251.000,5920.412,N,01800.923,E,1,00,0.0,0.000,M,0.0,M,,*61
$GPGSA,A,3,,,,,,,,,,,,,0.0,0.0,0.0*32
$GPRMC,175252.000,A,5920.412,N,01800.924,E,0.00,0.00,120312,,*09
$GPGGA,175252.000,5920.412,N,01800.924,E,1,00,0.0,0.000,M,0.0,M,,*65
$GPGSA,A,3,,,,,,,,,,,,,0.0,0.0,0.0*32
$GPRMC,175253.000,A,5920.411,N,01800.925,E,0.00,0.00,120312,,*0A
$GPGGA,175253.000,5920.411,N,01800.925,E,1,00,0.0,0.000,M,0.0,M,,*66
$GPGSA,A,3,,,,,,,,,,,,,0.0,0.0,0.0*32
$GPRMC,175254.000,A,5920.410,N,01800.926,E,0.00,0.00,120312,,*0F
$GPGGA,175254.000,5920.410,N,01800.926,E,1,00,0.0,0.638,M,0.0,M,,*6E
$GPGSA,A,3,,,,,,,,,,,,,0.0,0.0,0.0*32
$GPRMC,175255.000,A,5920.410,N,01800.927,E,0.00,0.00,120312,,*0F
$GPGGA,175255.000,5920.410,N,01800.927,E,1,00,0.0,0.770,M,0.0,M,,*63
$GPGSA,A,3,,,,,,,,,,,,,0.0,0.0,0.0*32
$GPRMC,175256.000,A,5920.409,N,01800.928,E,0.00,0.00,120312,,*0B
$GPGGA,175256.000,5920.409,N,01800.928,E,1,00,0.0,0.000,M,0.0,M,,*67
$GPGSA,A,3,,,,,,,,,,,,,0.0,0.0,0.0*32
$GPRMC,175257.000,A,5920.408,N,01800.929,E,0.00,0.00,120312,,*0A
$GPGGA,175257.000,5920.408,N,01800.929,E,1,00,0.0,0.000,M,0.0,M,,*66
$GPGSA,A,3,,,,,,,,,,,,,0.0,0.0,0.0*32
$GPRMC,175258.000,A,5920.408,N,01800.930,E,0.00,0.00,120312,,*0D
$GPGGA,175258.000,5920.408,N,01800.930,E,1,00,0.0,0.000,M,0.0,M,,*61
$GPGSA,A,3,,,,,,,,,,,,,0.0,0.0,0.0*32
$GPRMC,175259.000,A,5920.407,N,01800.931,E,0.00,0.00,120312,,*02
$GPGGA,175259.000,5920.407,N,01800.931,E,1,00,0.0,0.000,M,0.0,M,,*6E
$GPGSA,A,3,,,,,,,,,,,,,0.0,0.0,0.0*32
$GPRMC,175300.000,A,5920.406,N,01800.932,E,0.00,0.00,120312,,*0D
$GPGGA,175300.000,5920.406,N,01800.932,E,1,00,0.0,0.000,M,0.0,M,,*61
$GPGSA,A,3,,,,,,,,,,,,,0.0,0.0,0.0*32
$GPRMC,175301.000,A,5920.406,N,01800.933,E,0.00,0.00,120312,,*0D
$GPGGA,175301.000,5920.406,N,01800.933,E,1,00,0.0,0.000,M,0.0,M,,*61
$GPGSA,A,3,,,,,,,,,,,,,0.0,0.0,0.0*32
$GPRMC,175302.000,A,5920.405,N,01800.934,E,0.00,0.00,120312,,*0A
$GPGGA,175302.000,5920.405,N,01800.934,E,1,00,0.0,0.000,M,0.0,M,,*66
$GPGSA,A,3,,,,,,,,,,,,,0.0,0.0,0.0*32
$GPRMC,175303.000,A,5920.405,N,01800.935,E,0.00,0.00,120312,,*0A
$GPGGA,175303.000,5920.405,N,01800.935,E,1,00,0.0,0.000,M,0.0,M,,*66
$GPGSA,A,3,,,,,,,,,,,,,0.0,0.0,0.0*32
$GPRMC,175304.000,A,5920.404,N,01800.936,E,0.00,0.00,120312,,*0F
$GPGGA,175304.000,5920.404,N,01800.936,E,1,00,0.0,0.000,M,0.0,M,,*63
$GPGSA,A,3,,,,,,,,,,,,,0.0,0.0,0.0*32
$GPRMC,175305.000,A,5920.403,N,01800.938,E,0.00,0.00,120312,,*07
$GPGGA,175305.000,5920.403,N,01800.938,E,1,00,0.0,0.000,M,0.0,M,,*6B
$GPGSA,A,3,,,,,,,,,,,,,0.0,0.0,0.0*32
$GPRMC,175306.000,A,5920.403,N,01800.939,E,0.00,0.00,120312,,*05
$GPGGA,175306.000,5920.403,N,01800.939,E,1,00,0.0,0.000,M,0.0,M,,*69
$GPGSA,A,3,,,,,,,,,,,,,0.0,0.0,0.0*32
$GPRMC,175307.000,A,5920.402,N,01800.940,E,0.00,0.00,120312,,*0B
$GPGGA,175307.000,5920.402,N,01800.940,E,1,00,0.0,0.000,M,0.0,M,,*67
$GPGSA,A,3,,,,,,,,,,,,,0.0,0.0,0.0*32
$GPRMC,175308.000,A,5920.402,N,01800.942,E,0.00,0.00,120312,,*06
$GPGGA,175308.000,5920.402,N,01800.942,E,1,00,0.0,0.000,M,0.0,M,,*6A
$GPGSA,A,3,,,,,,,,,,,,,0.0,0.0,0.0*32
$GPRMC,175309.000,A,5920.401,N,01800.943,E,0.00,0.00,120312,,*05
$GPGGA,175309.000,5920.401,N,01800.943,E,1,00,0.0,0.000,M,0.0,M,,*69
$GPGSA,A,3,,,,,,,,,,,,,0.0,0.0,0.0*32
$GPRMC,175310.000,A,5920.401,N,01800.945,E,0.00,0.00,120312,,*0B
$GPGGA,175310.000,5920.401,N,01800.945,E,1,00,0.0,0.342,M,0.0,M,,*62
$GPGSA,A,3,,,,,,,,,,,,,0.0,0.0,0.0*32
$GPRMC,175311.000,A,5920.400,N,01800.946,E,0.00,0.00,120312,,*08
$GPGGA,175311.000,5920.400,N,01800.946,E,1,00,0.0,0.000,M,0.0,M,,*64
$GPGSA,A,3,,,,,,,,,,,,,0.0,0.0,0.0*32
$GPRMC,175312.000,A,5920.400,N,01800.948,E,0.00,0.00,120312,,*05
$GPGGA,175312.000,5920.400,N,01800.948,E,1,00,0.0,1.203,M,0.0,M,,*69
$GPGSA,A,3,,,,,,,,,,,,,0.0,0.0,0.0*32
$GPRMC,175313.000,A,5920.399,N,01800.950,E,0.00,0.00,120312,,*0A
$GPGGA,175313.000,5920.399,N,01800.950,E,1,00,0.0,3.056,M,0.0,M,,*66
$GPGSA,A,3,,,,,,,,,,,,,0.0,0.0,0.0*32
$GPRMC,175314.000,A,5920.399,N,01800.951,E,0.00,0.00,120312,,*0C
$GPGGA,175314.000,5920.399,N,01800.951,E,1,00,0.0,1.731,M,0.0,M,,*64
$GPGSA,A,3,,,,,,,,,,,,,0.0,0.0,0.0*32
$GPRMC,175315.000,A,5920.399,N,01800.953,E,0.00,0.00,120312,,*0F
$GPGGA,175315.000,5920.399,N,01800.953,E,1,00,0.0,0.593,M,0.0,M,,*6C
$GPGSA,A,3,,,,,,,,,,,,,0.0,0.0,0.0*32
$GPRMC,175316.000,A,5920.399,N,01800.954,E,0.00,0.00,120312,,*0B
$GPGGA,175316.000,5920.399,N,01800.954,E,1,00,0.0,3.652,M,0.0,M,,*65
$GPGSA,A,3,,,,,,,,,,,,,0.0,0.0,0.0*32
$GPRMC,175317.000,A,5920.398,N,01800.955,E,0.00,0.00,120312,,*0A
$GPGGA,175317.000,5920.398,N,01800.955,E,1,00,0.0,0.000,M,0.0,M,,*66
$GPGSA,A,3,,,,,,,,,,,,,0.0,0.0,0.0*32
$GPRMC,175318.000,A,5920.398,N,01800.957,E,0.00,0.00,120312,,*07
$GPGGA,175318.000,5920.398,N,01800.957,E,1,00,0.0,2.690,M,0.0,M,,*66
$GPGSA,A,3,,,,,,,,,,,,,0.0,0.0,0.0*32
$GPRMC,175319.000,A,5920.398,N,01800.958,E,0.00,0.00,120312,,*09
$GPGGA,175319.000,5920.398,N,01800.958,E,1,00,0.0,4.791,M,0.0,M,,*6E
$GPGSA,A,3,,,,,,,,,,,,,0.0,0.0,0.0*32
$GPRMC,175320.000,A,5920.398,N,01800.960,E,0.00,0.00,120312,,*08
$GPGGA,175320.000,5920.398,N,01800.960,E,1,00,0.0,4.522,M,0.0,M,,*65
$GPGSA,A,3,,,,,,,,,,,,,0.0,0.0,0.0*32
$GPRMC,175321.000,A,5920.398,N,01800.961,E,0.00,0.00,120312,,*08
$GPGGA,175321.000,5920.398,N,01800.961,E,1,00,0.0,0.000,M,0.0,M,,*64
$GPGSA,A,3,,,,,,,,,,,,,0.0,0.0,0.0*32
$GPRMC,175322.000,A,5920.398,N,01800.963,E,0.00,0.00,120312,,*09
$GPGGA,175322.000,5920.398,N,01800.963,E,1,00,0.0,0.000,M,0.0,M,,*65
$GPGSA,A,3,,,,,,,,,,,,,0.0,0.0,0.0*32
$GPRMC,175323.000,A,5920.397,N,01800.964,E,0.00,0.00,120312,,*00
$GPGGA,175323.000,5920.397,N,01800.964,E,1,00,0.0,0.000,M,0.0,M,,*6C
$GPGSA,A,3,,,,,,,,,,,,,0.0,0.0,0.0*32
$GPRMC,175324.000,A,5920.397,N,01800.966,E,0.00,0.00,120312,,*05
$GPGGA,175324.000,5920.397,N,01800.966,E,1,00,0.0,0.000,M,0.0,M,,*69
$GPGSA,A,3,,,,,,,,,,,,,0.0,0.0,0.0*32
$GPRMC,175325.000,A,5920.397,N,01800.967,E,0.00,0.00,120312,,*05
$GPGGA,175325.000,5920.397,N,01800.967,E,1,00,0.0,0.000,M,0.0,M,,*69
$GPGSA,A,3,,,,,,,,,,,,,0.0,0.0,0.0*32
$GPRMC,175326.000,A,5920.397,N,01800.968,E,0.00,0.00,120312,,*09
$GPGGA,175326.000,5920.397,N,01800.968,E,1,00,0.0,0.499,M,0.0,M,,*61
$GPGSA,A,3,,,,,,,,,,,,,0.0,0.0,0.0*32
$GPRMC,175327.000,A,5920.397,N,01800.970,E,0.00,0.00,120312,,*01
$GPGGA,175327.000,5920.397,N,01800.970,E,1,00,0.0,0.000,M,0.0,M,,*6D
$GPGSA,A,3,,,,,,,,,,,,,0.0,0.0,0.0*32
$GPRMC,175328.000,A,5920.396,N,01800.971,E,0.00,0.00,120312,,*0E
$GPGGA,175328.000,5920.396,N,01800.971,E,1,00,0.0,0.000,M,0.0,M,,*62
$GPGSA,A,3,,,,,,,,,,,,,0.0,0.0,0.0*32
$GPRMC,175329.000,A,5920.396,N,01800.973,E,0.00,0.00,120312,,*0D
$GPGGA,175329.000,5920.396,N,01800.973,E,1,00,0.0,0.000,M,0.0,M,,*61
$GPGSA,A,3,,,,,,,,,,,,,0.0,0.0,0.0*32
$GPRMC,175330.000,A,5920.396,N,01800.974,E,0.00,0.00,120312,,*02
$GPGGA,175330.000,5920.396,N,01800.974,E,1,00,0.0,2.942,M,0.0,M,,*63
$GPGSA,A,3,,,,,,,,,,,,,0.0,0.0,0.0*32
$GPRMC,175331.000,A,5920.396,N,01800.976,E,0.00,0.00,120312,,*01
$GPGGA,175331.000,5920.396,N,01800.976,E,1,00,0.0,1.781,M,0.0,M,,*62
$GPGSA,A,3,,,,,,,,,,,,,0.0,0.0,0.0*32
$GPRMC,175332.000,A,5920.396,N,01800.977,E,0.00,0.00,120312,,*03
$GPGGA,175332.000,5920.396,N,01800.977,E,1,00,0.0,0.074,M,0.0,M,,*6C
$GPGSA,A,3,,,,,,,,,,,,,0.0,0.0,0.0*32
$GPRMC,175333.000,A,5920.395,N,01800.979,E,0.00,0.00,120312,,*0F
$GPGGA,175333.000,5920.395,N,01800.979,E,1,00,0.0,1.835,M,0.0,M,,*6C
$GPGSA,A,3,,,,,,,,,,,,,0.0,0.0,0.0*32
$GPRMC,175334.000,A,5920.395,N,01800.980,E,0.00,0.00,120312,,*0E
$GPGGA,175334.000,5920.395,N,01800.980,E,1,00,0.0,0.360,M,0.0,M,,*67
$GPGSA,A,3,,,,,,,,,,,,,0.0,0.0,0.0*32
$GPRMC,175335.000,A,5920.395,N,01800.982,E,0.00,0.00,120312,,*0D
$GPGGA,175335.000,5920.395,N,01800.982,E,1,00,0.0,0.000,M,0.0,M,,*61
$GPGSA,A,3,,,,,,,,,,,,,0.0,0.0,0.0*32
$GPRMC,175336.000,A,5920.395,N,01800.983,E,0.00,0.00,120312,,*0F
$GPGGA,175336.000,5920.395,N,01800.983,E,1,00,0.0,0.000,M,0.0,M,,*63
$GPGSA,A,3,,,,,,,,,,,,,0.0,0.0,0.0*32
$GPRMC,175337.000,A,5920.395,N,01800.985,E,0.00,0.00,120312,,*08
$GPGGA,175337.000,5920.395,N,01800.985,E,1,00,0.0,0.000,M,0.0,M,,*64
$GPGSA,A,3,,,,,,,,,,,,,0.0,0.0,0.0*32
$GPRMC,175338.000,A,5920.394,N,01800.986,E,0.00,0.00,120312,,*05
$GPGGA,175338.000,5920.394,N,01800.986,E,1,00,0.0,0.000,M,0.0,M,,*69
$GPGSA,A,3,,,,,,,,,,,,,0.0,0.0,0.0*32
$GPRMC,175339.000,A,5920.394,N,01800.988,E,0.00,0.00,120312,,*0A
$GPGGA,175339.000,5920.394,N,01800.988,E,1,00,0.0,0.000,M,0.0,M,,*66
$GPGSA,A,3,,,,,,,,,,,,,0.0,0.0,0.0*32
$GPRMC,175340.000,A,5920.394,N,01800.989,E,0.00,0.00,120312,,*05
$GPGGA,175340.000,5920.394,N,01800.989,E,1,00,0.0,0.000,M,0.0,M,,*69
$GPGSA,A,3,,,,,,,,,,,,,0.0,0.0,0.0*32
$GPRMC,175341.000,A,5920.394,N,01800.991,E,0.00,0.00,120312,,*0D
$GPGGA,175341.000,5920.394,N,01800.991,E,1,00,0.0,0.000,M,0.0,M,,*61
$GPGSA,A,3,,,,,,,,,,,,,0.0,0.0,0.0*32
$GPRMC,175342.000,A,5920.394,N,01800.993,E,0.00,0.00,120312,,*0C
$GPGGA,175342.000,5920.394,N,01800.993,E,1,00,0.0,0.000,M,0.0,M,,*60
$GPGSA,A,3,,,,,,,,,,,,,0.0,0.0,0.0*32
$GPRMC,175343.000,A,5920.393,N,01800.994,E,0.00,0.00,120312,,*0D
$GPGGA,175343.000,5920.393,N,01800.994,E,1,00,0.0,0.000,M,0.0,M,,*61
$GPGSA,A,3,,,,,,,,,,,,,0.0,0.0,0.0*32
$GPRMC,175344.000,A,5920.393,N,01800.996,E,0.00,0.00,120312,,*08
$GPGGA,175344.000,5920.393,N,01800.996,E,1,00,0.0,0.000,M,0.0,M,,*64
$GPGSA,A,3,,,,,,,,,,,,,0.0,0.0,0.0*32
$GPRMC,175345.000,A,5920.393,N,01800.998,E,0.00,0.00,120312,,*07
$GPGGA,175345.000,5920.393,N,01800.998,E,1,00,0.0,0.000,M,0.0,M,,*6B
$GPGSA,A,3,,,,,,,,,,,,,0.0,0.0,0.0*32
$GPRMC,175346.000,A,5920.393,N,01800.999,E,0.00,0.00,120312,,*05
$GPGGA,175346.000,5920.393,N,01800.999,E,1,00,0.0,0.000,M,0.0,M,,*69
$GPGSA,A,3,,,,,,,,,,,,,0.0,0.0,0.0*32
$GPRMC,175347.000,A,5920.393,N,01801.001,E,0.00,0.00,120312,,*0D
$GPGGA,175347.000,5920.393,N,01801.001,E,1,00,0.0,0.000,M,0.0,M,,*61
$GPGSA,A,3,,,,,,,,,,,,,0.0,0.0,0.0*32
$GPRMC,175348.000,A,5920.393,N,01801.003,E,0.00,0.00,120312,,*00
$GPGGA,175348.000,5920.393,N,01801.003,E,1,00,0.0,0.000,M,0.0,M,,*6C
$GPGSA,A,3,,,,,,,,,,,,,0.0,0.0,0.0*32
$GPRMC,175349.000,A,5920.393,N,01801.004,E,0.00,0.00,120312,,*06
$GPGGA,175349.000,5920.393,N,01801.004,E,1,00,0.0,0.000,M,0.0,M,,*6A
$GPGSA,A,3,,,,,,,,,,,,,0.0,0.0,0.0*32
$GPRMC,175350.000,A,5920.392,N,01801.006,E,0.00,0.00,120312,,*0D
$GPGGA,175350.000,5920.392,N,01801.006,E,1,00,0.0,0.000,M,0.0,M,,*61
$GPGSA,A,3,,,,,,,,,,,,,0.0,0.0,0.0*32
$GPRMC,175351.000,A,5920.392,N,01801.008,E,0.00,0.00,120312,,*02
$GPGGA,175351.000,5920.392,N,01801.008,E,1,00,0.0,0.000,M,0.0,M,,*6E
$GPGSA,A,3,,,,,,,,,,,,,0.0,0.0,0.0*32
$GPRMC,175352.000,A,5920.392,N,01801.009,E,0.00,0.00,120312,,*00
$GPGGA,175352.000,5920.392,N,01801.009,E,1,00,0.0,0.000,M,0.0,M,,*6C
$GPGSA,A,3,,,,,,,,,,,,,0.0,0.0,0.0*32
$GPRMC,175353.000,A,5920.392,N,01801.011,E,0.00,0.00,120312,,*08
$GPGGA,175353.000,5920.392,N,01801.011,E,1,00,0.0,0.000,M,0.0,M,,*64
$GPGSA,A,3,,,,,,,,,,,,,0.0,0.0,0.0*32
$GPRMC,175354.000,A,5920.392,N,01801.012,E,0.00,0.00,120312,,*0C
